Location_Info,Latitude,Longitude,Date,WL(mbgl)
August month Depth to Water Level (In mbgl) Data of Unconfined Aquifer STATE_UT DISTRICT BLOCK VILLAGE_NA LATITUDE LONGITUDE Date WL(mbgl) Madhya Pradesh Jabalpur Shahpura Bheraghat,23.14417,79.80278,31-08-15,6.7
Madhya Pradesh Jabalpur Shahpura Shahpura,23.13833,79.66528,31-08-15,3.1
Madhya Pradesh Jabalpur Sihora Kachupura,23.39917,80.06472,31-08-15,3.1
Madhya Pradesh Jabalpur Sihora Sihora,23.48333,80.10833,31-08-15,12.8
Madhya Pradesh Jhabua Jhabua Jhabua,22.76250,74.58806,31-08-15,2.1
Madhya Pradesh Jhabua Jhabua Jhabua,22.77111,74.59000,31-08-15,4.4
Madhya Pradesh Jhabua Jhabua Pitol,22.78500,74.46556,31-08-15,3.0
Madhya Pradesh Jhabua Meghnagar Meghnagar,22.90500,74.54222,31-08-15,1.8
Madhya Pradesh Jhabua Petlawad Bamania,23.08861,74.76139,31-08-15,4.5
Madhya Pradesh Jhabua Petlawad Karwar,23.10111,74.87028,31-08-15,4.0
Madhya Pradesh Jhabua Petlawad Petlabad,23.00528,74.79889,31-08-15,1.5
Madhya Pradesh Jhabua Petlawad Petlawad,23.00361,74.79889,31-08-15,0.8
Madhya Pradesh Jhabua Petlawad Sarangi,23.05167,74.90833,31-08-15,1.8
Madhya Pradesh Jhabua Ranapur Ranapur,22.63944,74.52250,31-08-15,2.8
Madhya Pradesh Jhabua Ranapur Tikadimoti,22.69444,74.54222,31-08-15,0.6
Madhya Pradesh Jhabua Thandla Thandla,23.00806,74.57889,31-08-15,3.1
Madhya Pradesh Katni Badwara Badwara,23.74861,80.57694,31-08-15,9.7
Madhya Pradesh Katni Badwara Basadi,23.82694,80.62167,31-08-15,8.5
Madhya Pradesh Katni Badwara Kewlari,23.79722,80.83000,31-08-15,7.2
Madhya Pradesh Katni Badwara Khitoli,23.71056,80.83194,31-08-15,4.1
Madhya Pradesh Katni Dheemerkheda Siloni,23.34583,80.37778,31-08-15,5.4
Madhya Pradesh Katni Dheemerkheda Sleemanabad,23.61250,80.28667,31-08-15,5.0
Madhya Pradesh Katni Dheemerkheda Umariapan,23.52167,80.29167,31-08-15,3.9
Madhya Pradesh Katni Katni Katni,23.83056,80.42278,31-08-15,12.6
Madhya Pradesh Katni Katni Katni,23.83056,80.39861,31-08-15,3.1
Madhya Pradesh Katni Katni Lakhapateri,23.70833,80.31722,31-08-15,3.7
Madhya Pradesh Katni Katni Majhgawan,23.82167,80.49861,31-08-15,9.4
Madhya Pradesh Katni Rithi Deogawan,23.90278,80.25139,31-08-15,2.7
Madhya Pradesh Katni Rithi Rithi,23.90944,80.14194,31-08-15,3.1
Madhya Pradesh Katni Vijayraghavgarh Barchheka,23.85056,80.55667,31-08-15,13.4
Madhya Pradesh Katni Vijayraghavgarh Barhi,23.90167,80.81056,31-08-15,10.5
Madhya Pradesh Katni Vijayraghavgarh Piparia,23.86194,80.69861,31-08-15,6.9
Madhya Pradesh Katni Vijayraghavgarh Ubra,23.93611,80.81444,31-08-15,11.3
Madhya Pradesh Khandwa (East Nimar) Chhaigaon Makhan Chhegaonmakhan,21.83194,76.21778,31-08-15,6.3
Madhya Pradesh Khandwa (East Nimar) Chhaigaon Makhan Deshgaon,21.90167,76.17944,31-08-15,3.6
Madhya Pradesh Khandwa (East Nimar) Chhaigaon Makhan Dhangaon,22.08750,76.11833,31-08-15,3.1
Madhya Pradesh Khandwa (East Nimar) Chhaigaon Makhan Kusumbiya,21.68861,76.19778,31-08-15,4.5
Madhya Pradesh Khandwa (East Nimar) Chhaigaon Makhan Pandhana,21.70000,76.22639,31-08-15,2.0
Madhya Pradesh Khandwa (East Nimar) Chhaigaon Makhan Pandhana,21.69889,76.22694,31-08-15,2.7
Madhya Pradesh Khandwa (East Nimar) Chhaigaon Makhan Roshiya,21.95611,76.15611,31-08-15,3.0
Madhya Pradesh Khandwa (East Nimar) Harsud Bedia,21.97028,76.74389,31-08-15,2.8
Madhya Pradesh Khandwa (East Nimar) Harsud Bori Saray,22.00556,76.81667,31-08-15,3.4
August month Depth to Water Level (In mbgl) Data of Unconfined Aquifer STATE_UT DISTRICT BLOCK VILLAGE_NA LATITUDE LONGITUDE Date WL(mbgl) Madhya Pradesh Khandwa (East Nimar) Harsud Chanera,21.96167,76.69806,31-08-15,2.7
Madhya Pradesh Khandwa (East Nimar) Harsud Dagad Khedi,22.08222,76.83278,31-08-15,3.1
Madhya Pradesh Khandwa (East Nimar) Khalwa Kalamkalan,21.86278,76.70861,31-08-15,3.3
Madhya Pradesh Khandwa (East Nimar) Khalwa Khalwa,21.80528,76.74556,31-08-15,6.6
Madhya Pradesh Khandwa (East Nimar) Khalwa Khedi,21.86778,76.56611,31-08-15,4.3
Madhya Pradesh Khandwa (East Nimar) Khandwa Jaswadi,21.79444,76.42750,31-08-15,5.3
Madhya Pradesh Khandwa (East Nimar) Khandwa Jawar,21.92972,76.44750,31-08-15,4.9
Madhya Pradesh Khandwa (East Nimar) Khandwa Kahlari,21.98278,76.46389,31-08-15,2.8
Madhya Pradesh Khandwa (East Nimar) Khandwa Khandwa,21.81722,76.36167,31-08-15,3.3
Madhya Pradesh Khandwa (East Nimar) Khandwa Rudhy Bhata,21.83278,76.46694,31-08-15,1.5
Madhya Pradesh Khandwa (East Nimar) Pandhana Balwara,21.70000,76.51611,31-08-15,2.8
Madhya Pradesh Khandwa (East Nimar) Pandhana Borgaon Buzurg,21.60917,76.32528,31-08-15,2.9
Madhya Pradesh Khandwa (East Nimar) Pandhana Gurhi,21.63889,76.57444,31-08-15,5.7
Madhya Pradesh Khandwa (East Nimar) Punasa Bangarda,22.14472,76.46194,31-08-15,3.3
Madhya Pradesh Khandwa (East Nimar) Punasa Daulatpur,22.23222,76.39111,31-08-15,2.6
Madhya Pradesh Khandwa (East Nimar) Punasa Gujar Khedi,22.19667,76.30056,31-08-15,6.9
Madhya Pradesh Khandwa (East Nimar) Punasa Karoli,22.14167,76.20639,31-08-15,7.2
Madhya Pradesh Khandwa (East Nimar) Punasa Kelwa Kalan,22.17361,76.26722,31-08-15,3.0
Madhya Pradesh Khandwa (East Nimar) Punasa Mundi,22.06306,76.49167,31-08-15,1.6
Madhya Pradesh Khandwa (East Nimar) Punasa Thapana,22.22222,76.08722,31-08-15,7.5
Madhya Pradesh Khandwa (East Nimar) Punasa Udaipur,22.22583,76.40278,31-08-15,6.2
Madhya Pradesh Khargone (West Nimar) Barwah Amba,22.04278,75.94583,31-08-15,3.4
Madhya Pradesh Khargone (West Nimar) Barwah Balwara,22.39417,75.97500,31-08-15,1.7
Madhya Pradesh Khargone (West Nimar) Barwah Barwah,22.25389,76.03500,31-08-15,6.9
Madhya Pradesh Khargone (West Nimar) Barwah Sanawad,22.17333,76.07111,31-08-15,2.9
Madhya Pradesh Khargone (West Nimar) Bhagvanpura Bhulwani,21.54833,75.48139,31-08-15,0.4
Madhya Pradesh Khargone (West Nimar) Bhagvanpura Dhulkot,21.60972,75.55278,31-08-15,7.0
Madhya Pradesh Khargone (West Nimar) Bhagvanpura Ghatti,21.72278,75.66722,31-08-15,6.9
Madhya Pradesh Khargone (West Nimar) Bhikangaon Bamnala,21.82528,75.85306,31-08-15,9.4
Madhya Pradesh Khargone (West Nimar) Bhikangaon Bhikangaon,21.86194,75.95583,31-08-15,4.9
Madhya Pradesh Khargone (West Nimar) Bhikangaon Daudwa,22.02056,76.13694,31-08-15,7.1
Madhya Pradesh Khargone (West Nimar) Gogawan Divalgaon,21.82917,75.74278,31-08-15,8.2
Madhya Pradesh Khargone (West Nimar) Gogawan Gogaon,21.91806,75.74444,31-08-15,9.1
Madhya Pradesh Khargone (West Nimar) Kasrawad Kasrawad,22.12389,75.60833,31-08-15,2.4
Madhya Pradesh Khargone (West Nimar) Kasrawad Kasrawad,22.12361,75.60833,31-08-15,1.8
Madhya Pradesh Khargone (West Nimar) Kasrawad Sawda,22.03056,75.62889,31-08-15,1.4
Madhya Pradesh Khargone (West Nimar) Khargone Khargone,21.82778,75.61944,31-08-15,11.6
Madhya Pradesh Khargone (West Nimar) Khargone Un,21.82139,75.45056,31-08-15,2.4
Madhya Pradesh Khargone (West Nimar) Maheshwar Baddiya,22.23389,75.94833,31-08-15,2.5
Madhya Pradesh Khargone (West Nimar) Maheshwar Dhargaon,22.20917,75.59722,31-08-15,7.2
Madhya Pradesh Khargone (West Nimar) Maheshwar Maheshwar,22.17778,75.58750,31-08-15,4.2
Madhya Pradesh Khargone (West Nimar) Maheshwar Maheswar,22.17917,75.58750,31-08-15,6.7
August month Depth to Water Level (In mbgl) Data of Unconfined Aquifer STATE_UT DISTRICT BLOCK VILLAGE_NA LATITUDE LONGITUDE Date WL(mbgl) Madhya Pradesh Khargone (West Nimar) Maheshwar Piplyabuzrug,22.23389,75.86139,31-08-15,2.2
Madhya Pradesh Khargone (West Nimar) Segaon Segaon,21.85694,75.32889,31-08-15,2.6
Madhya Pradesh Maihar Amarpatan Amarpatan,24.31444,80.97556,31-08-15,20.9
Madhya Pradesh Maihar Amarpatan Amarpatan,24.31444,80.97556,31-08-15,7.9
Madhya Pradesh Maihar Amarpatan Kakra,24.35278,81.03889,31-08-15,8.0
Madhya Pradesh Maihar Amarpatan Kemar,24.48694,81.19500,31-08-15,3.7
Madhya Pradesh Maihar Amarpatan Mauhari Katra,24.44389,81.11806,31-08-15,1.6
Madhya Pradesh Maihar Amarpatan Mukundpur,24.42333,81.24722,31-08-15,8.8
Madhya Pradesh Maihar Maihar Amdara,24.10389,80.57639,31-08-15,7.7
Madhya Pradesh Maihar Maihar Bhadanpur,24.16667,80.82250,31-08-15,5.9
Madhya Pradesh Maihar Maihar Ghunwara,24.14722,80.63167,31-08-15,3.6
Madhya Pradesh Maihar Maihar Jhukehi,24.00417,80.42583,31-08-15,7.3
Madhya Pradesh Maihar Maihar Kusendi,24.17139,80.67722,31-08-15,4.3
Madhya Pradesh Maihar Maihar Maihar,24.25972,80.76444,31-08-15,6.9
Madhya Pradesh Maihar Maihar Maihar,24.26000,80.76111,31-08-15,2.1
Madhya Pradesh Maihar Maihar Naraura,24.27722,80.84111,31-08-15,2.9
Madhya Pradesh Maihar Maihar Parasmaniya,24.25972,80.76444,31-08-15,5.7
Madhya Pradesh Maihar Maihar Rivara,24.12639,80.86806,31-08-15,5.1
Madhya Pradesh Maihar Maihar Sabhaganj,24.03500,80.45583,31-08-15,4.0
Madhya Pradesh Maihar Ramnagar Devra,24.19444,80.99694,31-08-15,3.0
Madhya Pradesh Maihar Ramnagar Gorsari,24.23750,81.03500,31-08-15,8.9
Madhya Pradesh Maihar Ramnagar Govindpur,24.23028,81.18278,31-08-15,5.3
Madhya Pradesh Maihar Ramnagar Jowa,24.15722,80.93833,31-08-15,4.2
Madhya Pradesh Maihar Ramnagar Ramnagar,24.19611,81.15111,31-08-15,5.5
Madhya Pradesh Maihar Ramnagar Sagauni,24.26417,81.20278,31-08-15,6.2
Madhya Pradesh Mandla Bichhiya Bichhia,22.45167,80.70000,31-08-15,2.7
Madhya Pradesh Mandla Bichhiya Sijhora,22.42611,80.77722,31-08-15,2.1
Madhya Pradesh Mandla Bijadandi Kalpi,22.91889,80.19722,31-08-15,3.5
Madhya Pradesh Mandla Bijadandi Khamher Kheda,22.98194,80.15056,31-08-15,1.2
Madhya Pradesh Mandla Ghughri Ghughri,22.67778,80.69000,31-08-15,2.2
Madhya Pradesh Mandla Mandla Devgaon,22.73917,80.52500,31-08-15,4.9
Madhya Pradesh Mandla Mandla Gwari,22.71250,80.34167,31-08-15,3.1
Madhya Pradesh Mandla Mandla Khari,22.79278,80.41111,31-08-15,1.9
Madhya Pradesh Mandla Mandla Mahania Patpara,22.68472,80.47694,31-08-15,1.7
Madhya Pradesh Mandla Mandla Maharajpur,22.57528,80.35500,31-08-15,0.2
Madhya Pradesh Mandla Mandla Mandla,22.60000,80.36889,31-08-15,8.7
Madhya Pradesh Mandla Mandla Padmi Choraha,22.55000,80.41028,31-08-15,1.6
Madhya Pradesh Mandla Mandla Pathiri Patpara,22.60833,80.47056,31-08-15,3.8
Madhya Pradesh Mandla Mandla Ramnagar,22.61389,80.52083,31-08-15,1.7
Madhya Pradesh Mandla Mandla Rehgaon,22.74944,80.57722,31-08-15,3.4
Madhya Pradesh Mandla Mawai Mangli,22.28806,80.99861,31-08-15,1.1
Madhya Pradesh Mandla Mawai Motinala,22.34528,80.90333,31-08-15,4.6
August month Depth to Water Level (In mbgl) Data of Unconfined Aquifer STATE_UT DISTRICT BLOCK VILLAGE_NA LATITUDE LONGITUDE Date WL(mbgl) Madhya Pradesh Mandla Mohgaon Chabi,22.82500,80.70000,31-08-15,3.0
Madhya Pradesh Mandla Mohgaon Indira,22.76111,80.59722,31-08-15,0.5
Madhya Pradesh Mandla Nainpur Anjania,22.49361,80.50917,31-08-15,1.6
Madhya Pradesh Mandla Nainpur Bamhni,22.47639,80.36778,31-08-15,1.0
Madhya Pradesh Mandla Nainpur Dithori,22.51944,80.19889,31-08-15,1.8
Madhya Pradesh Mandla Nainpur Nainpur,22.42778,80.10972,31-08-15,2.8
Madhya Pradesh Mandla Nainpur Pindrai,22.51250,80.04833,31-08-15,2.1
Madhya Pradesh Mandla Nainpur Rampuri,22.40861,80.26417,31-08-15,2.7
Madhya Pradesh Mandla Nainpur Rampuri,22.40583,80.24722,02-08-15,1.5
Madhya Pradesh Mandla Nainpur Subhariya,22.52611,80.27083,31-08-15,2.3
Madhya Pradesh Mandla Nainpur Surajpura,22.52083,80.13750,31-08-15,1.1
Madhya Pradesh Mandla Narayanganj Babaliya,22.88278,80.41444,31-08-15,1.3
Madhya Pradesh Mandla Narayanganj Kudomali,22.87917,80.21333,31-08-15,1.1
Madhya Pradesh Mandla Narayanganj Mangalganj,22.75028,80.31056,31-08-15,1.3
Madhya Pradesh Mandla Niwas Manikpur,23.09167,80.50000,31-08-15,0.7
Madhya Pradesh Mandla Niwas Niwas,23.03917,80.43944,31-08-15,3.2
Madhya Pradesh Mandla Niwas Niwas,23.03917,80.43944,31-08-15,3.2
Madhya Pradesh Mandla Niwas Niwas,23.03917,80.44222,31-08-15,3.1
Madhya Pradesh Mandsaur Bhanpura Babulda,24.47417,75.68806,31-08-15,6.2
Madhya Pradesh Mandsaur Bhanpura Badodiya,24.59917,75.68917,31-08-15,4.3
Madhya Pradesh Mandsaur Bhanpura Bhanpura,24.50889,75.74444,31-08-15,5.0
Madhya Pradesh Mandsaur Bhanpura Bhanpura,24.51167,75.74944,31-08-15,2.1
Madhya Pradesh Mandsaur Bhanpura Dudhkheri,24.43139,75.68472,31-08-15,2.5
Madhya Pradesh Mandsaur Bhanpura Sandhara,24.56139,75.86750,31-08-15,6.3
Madhya Pradesh Mandsaur Garoth Barkheranayak,24.21944,75.52194,31-08-15,7.9
Madhya Pradesh Mandsaur Garoth Dharmarajeswar,24.19250,75.50000,31-08-15,8.2
Madhya Pradesh Mandsaur Garoth Garoth,24.33333,75.65472,31-08-15,2.2
Madhya Pradesh Mandsaur Garoth Shamgarh,24.19000,75.63000,31-08-15,1.5
Madhya Pradesh Mandsaur Garoth Shamgarh,24.19139,75.64000,31-08-15,2.9
Madhya Pradesh Mandsaur Malhargarh Malhargarh,24.28500,74.98667,31-08-15,2.2
Madhya Pradesh Mandsaur Malhargarh Malhargarh,24.27806,74.99111,31-08-15,6.2
Madhya Pradesh Mandsaur Malhargarh Narayangarh,24.26667,75.05389,31-08-15,4.1
Madhya Pradesh Mandsaur Malhargarh Pipaliya,24.27167,75.05333,31-08-15,4.3
Madhya Pradesh Mandsaur Malhargarh Pipaliya,24.19639,75.00833,31-08-15,2.8
Madhya Pradesh Mandsaur Malhargarh Pipliyamandi,24.20056,75.01056,31-08-15,6.5
Madhya Pradesh Mandsaur Mandsaur Basakheda,24.03167,75.19806,31-08-15,4.6
Madhya Pradesh Mandsaur Mandsaur Botalganj,24.14833,75.02917,31-08-15,3.7
Madhya Pradesh Mandsaur Mandsaur Chirmoliya,24.02222,75.25694,31-08-15,3.8
Madhya Pradesh Mandsaur Mandsaur Daloda,23.95500,75.10000,31-08-15,7.2
Madhya Pradesh Mandsaur Mandsaur Daloda,23.92500,75.09889,31-08-15,3.2
Madhya Pradesh Mandsaur Mandsaur Fatehgarh,23.98167,75.10333,31-08-15,4.1
Madhya Pradesh Mandsaur Mandsaur Gujarbardia,24.04167,75.18333,31-08-15,6.1
August month Depth to Water Level (In mbgl) Data of Unconfined Aquifer STATE_UT DISTRICT BLOCK VILLAGE_NA LATITUDE LONGITUDE Date WL(mbgl) Madhya Pradesh Mandsaur Mandsaur Kachnera,23.86389,75.10333,31-08-15,2.4
Madhya Pradesh Mandsaur Mandsaur Mandsaur,24.05750,75.09944,31-08-15,2.3
Madhya Pradesh Mandsaur Mandsaur Mandsaur,24.05278,75.08417,31-08-15,9.1
Madhya Pradesh Mandsaur Mandsaur Nayakhera,24.01444,75.08333,31-08-15,6.3
Madhya Pradesh Mandsaur Sitamau Khejriya,24.05000,75.48972,31-08-15,2.0
Madhya Pradesh Mandsaur Sitamau Manpura,23.88417,75.02639,31-08-15,8.7
Madhya Pradesh Mandsaur Sitamau Sitamau,24.01333,75.34778,31-08-15,1.8
Madhya Pradesh Mandsaur Sitamau Sitamau,24.01250,75.34944,31-08-15,1.4
Madhya Pradesh Mandsaur Sitamau Surjani,24.02528,75.44500,31-08-15,3.4
Madhya Pradesh Mandsaur Sitamau Suwasara,24.07694,75.64250,31-08-15,7.2
Madhya Pradesh Mandsaur Sitamau Titrod,24.02167,75.42778,31-08-15,2.6
Madhya Pradesh Mauganj Hanumana Hanumana,24.77694,82.08333,31-08-15,2.9
Madhya Pradesh Mauganj Hanumana Madha,24.74139,82.04556,31-08-15,5.0
Madhya Pradesh Mauganj Hanumana Pratapganj,24.71000,82.10917,31-08-15,3.8
Madhya Pradesh Mauganj Mauganj Deotalav,24.68194,81.71472,31-08-15,10.2
Madhya Pradesh Mauganj Mauganj Khatkhari,24.70889,81.99250,31-08-15,1.7
Madhya Pradesh Mauganj Mauganj Mauganj,24.67500,81.88889,31-08-15,4.1
Madhya Pradesh Mauganj Mauganj Pahadi,24.75000,81.88611,31-08-15,3.6
Madhya Pradesh Mauganj Mauganj Sitapur,24.55278,81.77000,31-08-15,3.2
Madhya Pradesh Mauganj Naigarhi Naigarhi,24.78667,81.77500,31-08-15,9.6
Madhya Pradesh Morena Joura Huseinpur,26.40528,77.60250,31-08-15,4.5
Madhya Pradesh Morena Joura Jafrabad,26.43056,77.87667,31-08-15,13.3
Madhya Pradesh Morena Kailaras Kailaras,26.29917,77.60861,31-08-15,2.4
Madhya Pradesh Morena Kailaras Tonga Gaon,26.25528,77.43806,31-08-15,2.8
Madhya Pradesh Morena Morena Khera Mewda,26.55139,78.08000,31-08-15,21.7
Madhya Pradesh Morena Pahadgarh Pahargarh,26.20000,77.63917,31-08-15,2.6
Madhya Pradesh Morena Porsa Aurethi,26.67778,78.38028,31-08-15,30.2
Madhya Pradesh Morena Porsa Bareha,26.74722,78.23750,31-08-15,23.8
Madhya Pradesh Morena Sabalgarh Mangrol,26.22250,77.35194,31-08-15,3.8
Madhya Pradesh Morena Sabalgarh Ranipura,26.20639,77.33472,31-08-15,2.7
Madhya Pradesh Morena Sabalgarh Tentra,26.17722,77.30500,31-08-15,15.8
Madhya Pradesh Narmadapuram Kesla Gurra,22.63000,77.91806,31-08-15,10.3
Madhya Pradesh Narmadapuram Kesla Kesla,22.47750,77.83972,31-08-15,3.8
Madhya Pradesh Narmadapuram Kesla Pathrauta,22.57639,77.79583,31-08-15,6.9
Madhya Pradesh Narmadapuram Kesla Sankhera,22.61667,77.83417,31-08-15,1.8
Madhya Pradesh Narmadapuram Kesla Suktawa,22.40750,77.84278,31-08-15,1.1
Madhya Pradesh Narmadapuram Makhan Nagar Babai,22.70000,77.93889,31-08-15,4.3
Madhya Pradesh Narmadapuram Makhan Nagar Bagratawa,22.62917,77.99306,31-08-15,10.6
Madhya Pradesh Narmadapuram Makhan Nagar Baharpur,22.73556,78.07361,31-08-15,8.3
Madhya Pradesh Narmadapuram Narmadapuram Dolaria,22.62639,77.63889,31-08-15,4.4
Madhya Pradesh Narmadapuram Narmadapuram Nimsadia,22.70778,77.80556,31-08-15,2.8
Madhya Pradesh Narmadapuram Narmadapuram Raisalpur,22.66917,77.75778,31-08-15,5.8
August month Depth to Water Level (In mbgl) Data of Unconfined Aquifer STATE_UT DISTRICT BLOCK VILLAGE_NA LATITUDE LONGITUDE Date WL(mbgl) Madhya Pradesh Narmadapuram Narmadapuram Sanwalkhera,22.65000,77.67667,31-08-15,4.8
Madhya Pradesh Narmadapuram Pipariya Matkuli,22.59222,78.45778,31-08-15,7.0
Madhya Pradesh Narmadapuram Pipariya Pachmarhi,22.47722,78.43917,31-08-15,0.5
Madhya Pradesh Narmadapuram Pipariya Sandia,22.91250,78.35528,31-08-15,13.5
Madhya Pradesh Narmadapuram Seoni Malwa Bhilatdeo,22.49083,77.52833,31-08-15,5.2
Madhya Pradesh Narmadapuram Seoni Malwa Seonimalwa,22.44833,77.46556,31-08-15,4.1
Madhya Pradesh Narmadapuram Sohagpur Semri Harchand,22.68861,78.09194,31-08-15,3.2
Madhya Pradesh Narmadapuram Sohagpur Sohagpur,22.69417,78.18861,31-08-15,5.7
Madhya Pradesh Narsimhapur Chawarpatha Dobhi,23.11472,78.92500,31-08-15,20.4
Madhya Pradesh Narsimhapur Chawarpatha Gundrai,23.17722,79.03194,31-08-15,2.6
Madhya Pradesh Narsimhapur Chawarpatha Koudiya,22.94583,78.81639,31-08-15,2.3
Madhya Pradesh Narsimhapur Chawarpatha Tendukhera,23.17500,78.87111,31-08-15,5.5
Madhya Pradesh Narsimhapur Gotegaon Gotegaon,23.03944,79.48056,31-08-15,8.5
Madhya Pradesh Narsimhapur Gotegaon Jhoteshwar,22.94778,79.55833,31-08-15,7.7
Madhya Pradesh Narsimhapur Gotegaon Manegaon,22.98639,79.39944,31-08-15,3.2
Madhya Pradesh Narsimhapur Kareli Betli,23.08333,79.03000,31-08-15,3.7
Madhya Pradesh Narsimhapur Kareli Kareli Basti,22.91083,79.06778,31-08-15,5.8
Madhya Pradesh Narsimhapur Narsimhapur Bachai,22.87389,79.30556,31-08-15,9.1
Madhya Pradesh Narsimhapur Narsimhapur Bauchhar,22.98694,79.33361,31-08-15,5.5
Madhya Pradesh Narsimhapur Narsimhapur Dangidhana,22.91028,79.27417,31-08-15,3.4
Madhya Pradesh Narsimhapur Narsimhapur Karakbel,22.99139,79.33750,31-08-15,4.2
Madhya Pradesh Narsimhapur Narsimhapur Ramkhiria,23.10139,79.16250,31-08-15,16.1
Madhya Pradesh Narsimhapur Narsimhapur Sundernagar,22.83833,79.23444,31-08-15,14.5
Madhya Pradesh Narsimhapur Sainkheda Deoribadwani,22.91667,78.68194,31-08-15,1.6
Madhya Pradesh Narsimhapur Sainkheda Salichauka,22.83056,78.66667,31-08-15,5.6
Madhya Pradesh Neemuch Jawad Athwakheda,24.83833,75.14000,31-08-15,6.5
Madhya Pradesh Neemuch Jawad Dadoli,24.67389,75.04111,31-08-15,4.1
Madhya Pradesh Neemuch Jawad Jat,24.84806,74.93806,31-08-15,2.6
Madhya Pradesh Neemuch Jawad Jawad,24.59417,74.86222,31-08-15,1.7
Madhya Pradesh Neemuch Jawad Lalpura,24.61333,74.92639,31-08-15,3.3
Madhya Pradesh Neemuch Jawad Lalpura,24.61361,74.92639,31-08-15,4.4
Madhya Pradesh Neemuch Jawad Morban,24.62222,75.00000,31-08-15,2.6
Madhya Pradesh Neemuch Jawad Patan,24.90722,75.21111,31-08-15,2.2
Madhya Pradesh Neemuch Jawad Pipalikheda,24.92056,75.23056,31-08-15,6.4
Madhya Pradesh Neemuch Jawad Ratangarh,24.82000,75.11667,31-08-15,5.0
Madhya Pradesh Neemuch Jawad Ratangarh,24.81056,75.10889,31-08-15,7.0
Madhya Pradesh Neemuch Jawad Singoli,24.96778,75.28806,31-08-15,8.7
Madhya Pradesh Neemuch Manasa Barlai,24.42417,75.32000,31-08-15,3.2
Madhya Pradesh Neemuch Manasa Besla,24.55333,75.45000,31-08-15,2.4
Madhya Pradesh Neemuch Manasa Besla,24.55417,75.45667,31-08-15,1.7
Madhya Pradesh Neemuch Manasa Bhadana,24.56111,75.36944,31-08-15,4.9
Madhya Pradesh Neemuch Manasa Chachor,24.37222,75.35722,31-08-15,5.4
August month Depth to Water Level (In mbgl) Data of Unconfined Aquifer STATE_UT DISTRICT BLOCK VILLAGE_NA LATITUDE LONGITUDE Date WL(mbgl) Madhya Pradesh Neemuch Manasa Gota Pipliya,24.48000,75.22333,31-08-15,6.2
Madhya Pradesh Neemuch Manasa Jamalpura,24.48667,75.46417,31-08-15,2.9
Madhya Pradesh Neemuch Manasa Kukreshwar,24.48167,75.26167,31-08-15,5.1
Madhya Pradesh Neemuch Manasa Kukreshwar,24.48000,75.26806,31-08-15,4.0
Madhya Pradesh Neemuch Manasa Kundaliya,24.46667,75.33083,31-08-15,1.6
Madhya Pradesh Neemuch Manasa Manasa,24.47667,75.14500,31-08-15,3.2
Madhya Pradesh Neemuch Manasa Manasa,24.47056,75.14389,31-08-15,4.1
Madhya Pradesh Neemuch Manasa Rampura,24.46667,75.43333,31-08-15,1.2
Madhya Pradesh Neemuch Manasa Rampura,24.46194,75.44111,31-08-15,2.6
Madhya Pradesh Neemuch Neemuch Girdola,24.46222,74.93222,31-08-15,2.4
Madhya Pradesh Neemuch Neemuch Kacholi,24.36250,74.94139,31-08-15,1.8
Madhya Pradesh Neemuch Neemuch Nayagaon,24.55167,74.77000,31-08-15,0.3
Madhya Pradesh Neemuch Neemuch Nayagaon,24.56111,74.77639,31-08-15,0.6
Madhya Pradesh Neemuch Neemuch Neemuch,24.45361,74.87389,31-08-15,2.9
Madhya Pradesh Neemuch Neemuch Neemuch Kanawati,24.48667,74.85667,31-08-15,3.1
Madhya Pradesh Neemuch Neemuch Semali Chandrawat,24.54806,74.93611,31-08-15,1.6
Madhya Pradesh Niwari Niwari Newari,25.34583,78.80000,31-08-15,11.1
Madhya Pradesh Niwari Niwari Niwari,25.35250,78.80556,31-08-15,9.4
Madhya Pradesh Niwari Niwari Orchha,25.35139,78.64528,31-08-15,20.6
Madhya Pradesh Niwari Niwari Orchha,25.34944,78.64111,31-08-15,8.2
Madhya Pradesh Niwari Prithvipur Beer Sagar,25.19639,78.69611,31-08-15,5.0
Madhya Pradesh Niwari Prithvipur Birorakhet,25.11500,78.79167,31-08-15,1.6
Madhya Pradesh Niwari Prithvipur Nengawan,25.25472,78.67333,31-08-15,4.2
Madhya Pradesh Niwari Prithvipur Prithipur,25.20611,78.75389,31-08-15,4.7
Madhya Pradesh Pandhurna Pandhurna Bangaon,21.57250,78.44722,31-08-15,3.0
Madhya Pradesh Pandhurna Pandhurna Borgaon,21.55944,78.81611,31-08-15,3.2
Madhya Pradesh Pandhurna Pandhurna Chinchkheda,21.64028,78.47944,31-08-15,8.1
Madhya Pradesh Pandhurna Pandhurna Chincholiwad,21.50000,78.69306,31-08-15,3.6
Madhya Pradesh Pandhurna Pandhurna Mohi,21.65806,78.44083,31-08-15,3.6
Madhya Pradesh Pandhurna Pandhurna Pandurna,21.58944,78.51833,31-08-15,3.5
Madhya Pradesh Pandhurna Pandhurna Piplanarayanwar,21.58778,78.73139,31-08-15,8.0
Madhya Pradesh Pandhurna Pandhurna Rajna,21.54028,78.63889,31-08-15,2.6
Madhya Pradesh Pandhurna Sausar Ramakona,21.70194,78.84250,31-08-15,2.7
Madhya Pradesh Pandhurna Sausar Sausar,21.65194,78.80278,31-08-15,7.8
Madhya Pradesh Pandhurna Sausar Sausar,21.65194,78.80278,31-08-15,8.0
Madhya Pradesh Pandhurna Sausar Sausar,21.65528,78.80556,31-08-15,8.7
Madhya Pradesh Pandhurna Sausar Silwanighati,21.78806,78.83056,31-08-15,1.7
Madhya Pradesh Panna Ajaigarh Ajaigarh,24.99028,80.26750,31-08-15,8.2
Madhya Pradesh Panna Ajaigarh Banahari Kalan,24.85361,80.17861,31-08-15,6.0
Madhya Pradesh Panna Ajaigarh Bariyarpur,24.84944,80.09500,31-08-15,5.8
Madhya Pradesh Panna Ajaigarh Pandepurwa,24.84167,80.26694,31-08-15,4.3
Madhya Pradesh Panna Ajaigarh Sinhai,24.92000,80.22528,31-08-15,11.7
August month Depth to Water Level (In mbgl) Data of Unconfined Aquifer STATE_UT DISTRICT BLOCK VILLAGE_NA LATITUDE LONGITUDE Date WL(mbgl) Madhya Pradesh Panna Gunour Amanganj,24.42139,80.03389,31-08-15,4.7
Madhya Pradesh Panna Gunour Gunaur,24.46278,80.25139,31-08-15,3.2
Madhya Pradesh Panna Gunour Salleha,24.41333,80.40250,31-08-15,0.4
Madhya Pradesh Panna Panna Akolau,24.61944,80.13222,31-08-15,2.1
Madhya Pradesh Panna Panna Backchur,24.72222,80.10167,31-08-15,5.1
Madhya Pradesh Panna Panna Badagaon,24.62361,80.34556,31-08-15,5.7
Madhya Pradesh Panna Panna Bahera,24.66222,80.25472,31-08-15,4.4
Madhya Pradesh Panna Panna Barrachh,24.54528,80.17333,31-08-15,6.6
Madhya Pradesh Panna Panna Madla,24.72944,80.01056,31-08-15,3.4
Madhya Pradesh Panna Panna Panna,24.70556,80.18056,31-08-15,6.7
Madhya Pradesh Panna Panna Tara,24.53306,80.08889,31-08-15,5.1
Madhya Pradesh Panna Pawai Hathkuri,24.24583,80.06889,31-08-15,4.6
Madhya Pradesh Panna Pawai Kharmora,24.12194,80.26111,31-08-15,1.5
Madhya Pradesh Panna Pawai Mohendra,24.19056,79.96611,31-08-15,5.6
Madhya Pradesh Panna Pawai Powai,24.26472,80.16528,31-08-15,17.6
Madhya Pradesh Panna Pawai Semaria,24.26583,79.90000,31-08-15,5.5
Madhya Pradesh Panna Pawai Semaria,24.26861,79.90000,31-08-15,4.5
Madhya Pradesh Panna Shahnagar Dharampura,23.97917,80.31472,31-08-15,5.7
Madhya Pradesh Panna Shahnagar Kuankheda,23.90139,79.92278,31-08-15,0.6
Madhya Pradesh Panna Shahnagar Raipura,23.90361,79.95194,31-08-15,2.6
Madhya Pradesh Panna Shahnagar Saharan,24.08056,79.96528,31-08-15,0.5
Madhya Pradesh Panna Shahnagar Takhori,23.98778,79.95056,31-08-15,0.9
Madhya Pradesh Raisen Badi Bareli,23.00556,78.23417,31-08-15,14.0
Madhya Pradesh Raisen Badi Bori,23.03056,78.08333,31-08-15,3.0
Madhya Pradesh Raisen Badi Harsili,23.00806,78.14583,31-08-15,7.5
Madhya Pradesh Raisen Begamganj Begumganj,23.60667,78.34861,31-08-15,7.1
Madhya Pradesh Raisen Begamganj Padahjir,23.57333,78.40389,31-08-15,7.0
Madhya Pradesh Raisen Begamganj Paloha,23.53194,78.29583,31-08-15,3.2
Madhya Pradesh Raisen Begamganj Sultanganj,23.50250,78.55500,31-08-15,4.7
Madhya Pradesh Raisen Gairatganj Dehgaon,23.31917,78.09056,31-08-15,4.6
Madhya Pradesh Raisen Gairatganj Gairatganj,23.40972,78.21944,31-08-15,1.2
Madhya Pradesh Raisen Gairatganj Gairatganj,23.40833,78.22611,31-08-15,2.5
Madhya Pradesh Raisen Gairatganj Garhi,23.39444,78.14222,31-08-15,2.2
Madhya Pradesh Raisen Obaidallaganj Barkheda,22.91667,77.65111,31-08-15,4.9
Madhya Pradesh Raisen Obaidallaganj Chiklod,23.10556,77.72278,31-08-15,2.3
Madhya Pradesh Raisen Obaidallaganj Goharganj,23.02611,77.67861,31-08-15,3.2
Madhya Pradesh Raisen Obaidallaganj Hathi Palan,23.07639,77.75333,31-08-15,2.9
Madhya Pradesh Raisen Obaidallaganj Maindwa,23.12194,77.54639,31-08-15,2.8
Madhya Pradesh Raisen Obaidallaganj Sultanpur,23.13556,77.93194,31-08-15,1.4
Madhya Pradesh Raisen Obaidallaganj Tamot,23.00667,77.63917,31-08-15,2.7
Madhya Pradesh Raisen Sanchi Khadera,23.30389,77.94556,31-08-15,1.2
Madhya Pradesh Raisen Sanchi Kharwai,23.26694,77.66333,31-08-15,3.1
August month Depth to Water Level (In mbgl) Data of Unconfined Aquifer STATE_UT DISTRICT BLOCK VILLAGE_NA LATITUDE LONGITUDE Date WL(mbgl) Madhya Pradesh Raisen Sanchi Raisen,23.33611,77.78278,31-08-15,2.3
Madhya Pradesh Raisen Sanchi Salamatpurchoraha,23.45250,77.69750,31-08-15,3.2
Madhya Pradesh Raisen Sanchi Sanchi,23.48278,77.73889,31-08-15,7.0
Madhya Pradesh Raisen Sanchi Sanchi,23.48667,77.74111,31-08-15,1.2
Madhya Pradesh Raisen Silwani Dhangwan,23.22083,78.47778,31-08-15,9.5
Madhya Pradesh Raisen Silwani Siarmau,23.40083,78.55000,31-08-15,0.4
Madhya Pradesh Raisen Silwani Silwani,23.30000,78.43972,31-08-15,4.5
Madhya Pradesh Raisen Udaipura Deori,23.12361,78.68389,31-08-15,2.6
Madhya Pradesh Raisen Udaipura Khiria,23.09222,78.48333,31-08-15,4.0
Madhya Pradesh Raisen Udaipura Udaipura,23.07472,78.51278,31-08-15,6.4
Madhya Pradesh Rajgarh Biaora Barkheda,23.94194,76.95500,31-08-15,3.7
Madhya Pradesh Rajgarh Biaora Biora,23.91056,76.90833,31-08-15,3.9
Madhya Pradesh Rajgarh Biaora Biora,23.91333,76.91667,31-08-15,4.1
Madhya Pradesh Rajgarh Biaora Suthaliya,23.99556,77.13778,31-08-15,2.3
Madhya Pradesh Rajgarh Khilchipur Khilchipur,24.04250,76.57917,31-08-15,1.5
Madhya Pradesh Rajgarh Narsinghgarh Bhagaribunglow,23.79917,76.98472,31-08-15,2.8
Madhya Pradesh Rajgarh Narsinghgarh Ganayari,23.69056,77.00833,31-08-15,5.3
Madhya Pradesh Rajgarh Narsinghgarh Gandhigram,23.67417,77.06944,31-08-15,4.9
Madhya Pradesh Rajgarh Narsinghgarh Mandawar,23.70278,76.88250,31-08-15,5.4
Madhya Pradesh Rajgarh Narsinghgarh Narsinghgarh,23.70750,77.07583,31-08-15,6.6
Madhya Pradesh Rajgarh Narsinghgarh Pachor,23.71750,76.73833,31-08-15,1.2
Madhya Pradesh Rajgarh Narsinghgarh Pilukhedi,23.49111,77.06028,31-08-15,0.7
Madhya Pradesh Rajgarh Narsinghgarh Talen,23.57611,76.73472,31-08-15,3.9
Madhya Pradesh Rajgarh Rajgarh Bawari,23.98639,76.81611,31-08-15,1.9
Madhya Pradesh Rajgarh Rajgarh Rajgarh,24.00861,76.74139,31-08-15,11.0
Madhya Pradesh Rajgarh Sarangpur Bamangaon,23.88278,76.61861,31-08-15,1.1
Madhya Pradesh Rajgarh Sarangpur Khujner,23.77500,76.63194,31-08-15,2.6
Madhya Pradesh Rajgarh Sarangpur Sandavta,23.83361,76.52556,31-08-15,1.6
Madhya Pradesh Rajgarh Sarangpur Sarangpur,23.56667,76.46111,31-08-15,5.3
Madhya Pradesh Rajgarh Sarangpur Sarangpur,23.56944,76.47222,31-08-15,4.8
Madhya Pradesh Rajgarh Sarangpur Udhankheri,23.66444,76.62861,31-08-15,2.4
Madhya Pradesh Rajgarh Zirapur Chhapihera,23.89667,76.45333,31-08-15,1.6
Madhya Pradesh Rajgarh Zirapur Machalpur,24.13000,76.31389,31-08-15,2.1
Madhya Pradesh Rajgarh Zirapur Machalpur,24.13000,76.31389,31-08-15,2.0
Madhya Pradesh Rajgarh Zirapur Mohan,23.91528,76.41250,31-08-15,1.7
Madhya Pradesh Rajgarh Zirapur Zirapur,24.01611,76.37750,31-08-15,12.7
Madhya Pradesh Ratlam Alot Alot,23.75278,75.54722,31-08-15,18.5
Madhya Pradesh Ratlam Alot Alot,23.75778,75.52972,31-08-15,13.3
Madhya Pradesh Ratlam Alot Gul Balod,23.74861,75.47472,31-08-15,11.8
Madhya Pradesh Ratlam Alot Kharwa Kalan,23.61528,75.47806,31-08-15,8.9
Madhya Pradesh Ratlam Alot Malakhera,23.69722,75.44861,31-08-15,1.8
Madhya Pradesh Ratlam Alot Tal,23.72167,75.38333,31-08-15,2.8
August month Depth to Water Level (In mbgl) Data of Unconfined Aquifer STATE_UT DISTRICT BLOCK VILLAGE_NA LATITUDE LONGITUDE Date WL(mbgl) Madhya Pradesh Ratlam Bajna Bajna,23.30944,74.63778,31-08-15,5.7
Madhya Pradesh Ratlam Bajna Rajapur,23.34083,74.73000,31-08-15,2.6
Madhya Pradesh Ratlam Bajna Raoti,23.22583,74.83889,31-08-15,0.9
Madhya Pradesh Ratlam Bajna Raoti,23.22694,74.84222,31-08-15,2.5
Madhya Pradesh Ratlam Jaora Badawada,23.58472,75.25278,31-08-15,12.5
Madhya Pradesh Ratlam Jaora Dhodhar,23.77500,75.10833,31-08-15,1.6
Madhya Pradesh Ratlam Jaora Dhodhar,23.77472,75.10889,31-08-15,2.5
Madhya Pradesh Ratlam Jaora Jaora,23.62500,75.10972,31-08-15,8.7
Madhya Pradesh Ratlam Jaora Jaora,23.63333,75.12222,31-08-15,7.7
Madhya Pradesh Ratlam Jaora Mindli,23.69028,75.29167,31-08-15,1.7
Madhya Pradesh Ratlam Jaora Sindurkiya,23.66611,75.23528,31-08-15,3.7
Madhya Pradesh Ratlam Jaora Ukediya,23.58472,75.18028,31-08-15,4.1
Madhya Pradesh Ratlam Piploda Badoda,23.56278,74.93000,31-08-15,7.3
Madhya Pradesh Ratlam Piploda Barkheda,23.62500,75.03056,31-08-15,4.7
Madhya Pradesh Ratlam Piploda Nawabganj,23.53889,74.87833,31-08-15,5.1
Madhya Pradesh Ratlam Piploda Piploda,23.60722,74.94861,31-08-15,10.9
Madhya Pradesh Ratlam Piploda Sohangarh,23.58028,75.08000,31-08-15,2.7
Madhya Pradesh Ratlam Ratlam Dhannod,23.44028,74.97750,31-08-15,2.6
Madhya Pradesh Ratlam Ratlam Dharad,23.25000,75.11250,31-08-15,7.2
Madhya Pradesh Ratlam Ratlam Dharad,23.25000,75.10750,31-08-15,5.0
Madhya Pradesh Ratlam Ratlam Mewasa,23.49722,75.06722,31-08-15,5.7
Madhya Pradesh Ratlam Ratlam Mundri,23.20139,75.02056,31-08-15,7.3
Madhya Pradesh Ratlam Ratlam Namli,23.45472,75.06611,31-08-15,9.6
Madhya Pradesh Ratlam Ratlam Palsoda,23.40556,75.02000,31-08-15,5.8
Madhya Pradesh Ratlam Ratlam Ratlam,23.33111,75.04528,31-08-15,6.2
Madhya Pradesh Ratlam Ratlam Rattagarhkhera,23.13944,75.21611,31-08-15,3.7
Madhya Pradesh Ratlam Ratlam Sejawata,23.37694,75.06028,31-08-15,2.3
Madhya Pradesh Ratlam Sailana Sailana,23.45694,74.93278,31-08-15,4.1
Madhya Pradesh Ratlam Sailana Saser,23.39972,74.88694,31-08-15,4.5
Madhya Pradesh Ratlam Sailana Shivgarh,23.35194,74.85611,31-08-15,2.9
Madhya Pradesh Ratlam Sailana Shivgarh,23.34861,74.86167,31-08-15,1.2
Madhya Pradesh Rewa Gangev Baikunthpur,24.72833,81.40889,31-08-15,3.0
Madhya Pradesh Rewa Gangev Gangeo,24.75139,81.59583,31-08-15,7.7
Madhya Pradesh Rewa Gangev Garh,24.81556,81.64500,31-08-15,4.5
Madhya Pradesh Rewa Gangev Mangawan,24.64500,81.54333,31-08-15,6.0
Madhya Pradesh Rewa Gangev Tikura,24.67250,81.63667,31-08-15,8.0
Madhya Pradesh Rewa Jawa Barduhawan,24.97306,81.39111,31-08-15,17.8
Madhya Pradesh Rewa Jawa Dabhoura,25.11361,81.30194,31-08-15,2.9
Madhya Pradesh Rewa Jawa Jawa,24.96250,81.49167,31-08-15,18.0
Madhya Pradesh Rewa Jawa Senhuda,25.03028,81.36472,31-08-15,7.5
Madhya Pradesh Rewa Raipur Karchuliyan Gurh,24.50000,81.50056,31-08-15,11.8
Madhya Pradesh Rewa Rewa Amilki,24.42500,81.30833,31-08-15,9.0
August month Depth to Water Level (In mbgl) Data of Unconfined Aquifer STATE_UT DISTRICT BLOCK VILLAGE_NA LATITUDE LONGITUDE Date WL(mbgl) Madhya Pradesh Rewa Rewa Govindgarh,24.37083,81.30694,31-08-15,3.3
Madhya Pradesh Rewa Rewa Raipur,24.57833,81.43667,31-08-15,7.2
Madhya Pradesh Rewa Rewa Reethi,24.52194,81.38972,31-08-15,4.7
Madhya Pradesh Rewa Rewa Rewa,24.54389,81.30306,31-08-15,7.3
Madhya Pradesh Rewa Rewa Sagra,24.60111,81.35639,31-08-15,5.3
Madhya Pradesh Rewa Sirmour Bara,24.82056,81.09417,31-08-15,2.0
Madhya Pradesh Rewa Sirmour Semaria,24.79611,81.15194,31-08-15,13.5
Madhya Pradesh Rewa Sirmour Sirmaur,24.83389,81.36528,31-08-15,6.6
Madhya Pradesh Rewa Sirmour Sirmaur,24.83389,81.36528,31-08-15,6.6
Madhya Pradesh Rewa Teonthar Katra,24.91778,81.67361,31-08-15,0.4
Madhya Pradesh Rewa Teonthar Kuthla,24.96278,81.60083,31-08-15,9.1
Madhya Pradesh Rewa Teonthar Sohagi,24.98250,81.69056,31-08-15,3.9
Madhya Pradesh Rewa Teonthar Teonthar,24.98611,81.63611,31-08-15,8.6
Madhya Pradesh Sagar Banda Banda,24.04556,78.96722,31-08-15,2.0
Madhya Pradesh Sagar Banda Bara,24.04028,79.15417,31-08-15,11.7
Madhya Pradesh Sagar Banda Behrol,24.04972,78.74583,31-08-15,1.7
Madhya Pradesh Sagar Banda Dalpatpur,24.13417,79.01667,31-08-15,5.3
Madhya Pradesh Sagar Banda Manjla,23.93722,79.02139,31-08-15,13.1
Madhya Pradesh Sagar Banda Prahlad Pura,24.01833,79.04944,31-08-15,2.7
Madhya Pradesh Sagar Bina Bina,24.16528,78.19111,31-08-15,7.4
Madhya Pradesh Sagar Deori Deorikhas,23.38556,79.01556,31-08-15,2.2
Madhya Pradesh Sagar Deori Gourjhamar,23.51556,78.93944,31-08-15,11.8
Madhya Pradesh Sagar Jaisinagar Bhapel,23.80611,78.63806,31-08-15,1.3
Madhya Pradesh Sagar Jaisinagar Jaisingh Nagar,23.62611,78.57500,31-08-15,5.7
Madhya Pradesh Sagar Jaisinagar Sarkhedi,23.73611,78.58861,31-08-15,7.2
Madhya Pradesh Sagar Jaisinagar Sihora,23.79750,78.56083,31-08-15,5.3
Madhya Pradesh Sagar Jaisinagar Surkhi,23.62972,78.83333,31-08-15,4.3
Madhya Pradesh Sagar Kesli Kesli,23.42056,78.80556,31-08-15,1.5
Madhya Pradesh Sagar Kesli Nayanagar,23.48389,78.89583,31-08-15,11.9
Madhya Pradesh Sagar Khurai Khurai,24.05083,78.33222,31-08-15,14.1
Madhya Pradesh Sagar Khurai Khurai,24.03944,78.33333,31-08-15,10.5
Madhya Pradesh Sagar Malthone Bamhori Lal,24.24556,78.43278,31-08-15,0.6
Madhya Pradesh Sagar Malthone Bandri,24.04167,78.63972,31-08-15,0.9
Madhya Pradesh Sagar Malthone Barodia,24.21583,78.58333,31-08-15,4.6
Madhya Pradesh Sagar Malthone Khimlasa,24.20111,78.36306,31-08-15,2.4
Madhya Pradesh Sagar Malthone Naktapur,24.27639,78.54944,31-08-15,1.0
Madhya Pradesh Sagar Rahatgarh Hurra,23.72778,78.40528,31-08-15,7.2
Madhya Pradesh Sagar Rahatgarh Jaruakhera,23.97333,78.48194,31-08-15,5.0
Madhya Pradesh Sagar Rahatgarh Naryawali,23.90611,78.59250,31-08-15,1.6
Madhya Pradesh Sagar Rahatgarh Rahatgarh,23.78750,78.41806,31-08-15,2.3
Madhya Pradesh Sagar Rehli Garhakota,23.78389,79.12889,31-08-15,12.9
Madhya Pradesh Sagar Rehli Parsiya,23.79194,79.07056,31-08-15,5.5
August month Depth to Water Level (In mbgl) Data of Unconfined Aquifer STATE_UT DISTRICT BLOCK VILLAGE_NA LATITUDE LONGITUDE Date WL(mbgl) Madhya Pradesh Sagar Rehli Piparia,23.66222,78.99583,31-08-15,7.6
Madhya Pradesh Sagar Rehli Rehli,23.64056,79.06528,31-08-15,15.2
Madhya Pradesh Sagar Sagar Baroda,23.71583,78.90972,31-08-15,3.0
Madhya Pradesh Sagar Sagar Khajuria,23.93972,78.68639,31-08-15,3.7
Madhya Pradesh Sagar Sagar Parsoria,23.85389,78.93556,31-08-15,5.3
Madhya Pradesh Sagar Sagar Rehpura,23.71583,78.81361,31-08-15,1.4
Madhya Pradesh Sagar Sagar Sagar,23.83611,78.71278,31-08-15,15.8
Madhya Pradesh Sagar Sagar Sagar,23.83333,78.76750,31-08-15,3.4
Madhya Pradesh Sagar Shahgarh Hirapur,24.36556,79.21056,31-08-15,3.6
Madhya Pradesh Sagar Shahgarh Rurawan,24.18167,79.02500,31-08-15,1.7
Madhya Pradesh Sagar Shahgarh Shahgarh,24.32222,79.12500,31-08-15,1.1
Madhya Pradesh Sagar Shahgarh Shahgarh,24.31972,79.11944,31-08-15,3.2
Madhya Pradesh Satna Majhgawan Babupur,25.00417,80.80000,31-08-15,15.6
Madhya Pradesh Satna Majhgawan Birsinghpur,24.79750,80.96972,31-08-15,10.6
Madhya Pradesh Satna Majhgawan Chitrakoot,25.06667,80.81667,31-08-15,7.7
Madhya Pradesh Satna Majhgawan Chowraha,24.97833,80.79778,31-08-15,4.3
Madhya Pradesh Satna Majhgawan Jaitwara,24.73972,80.86722,31-08-15,17.2
Madhya Pradesh Satna Majhgawan Majhagawa,24.91056,80.81333,31-08-15,4.0
Madhya Pradesh Satna Majhgawan Majhgawan,24.91389,80.79722,31-08-15,17.1
Madhya Pradesh Satna Majhgawan Nakaila,25.01750,80.68611,31-08-15,7.4
Madhya Pradesh Satna Majhgawan Paldeo,25.11028,80.78278,31-08-15,6.5
Madhya Pradesh Satna Nagod Barethia,24.57639,80.68417,31-08-15,5.3
Madhya Pradesh Satna Nagod Dureha,24.45056,80.46083,31-08-15,2.6
Madhya Pradesh Satna Nagod Jaso,24.49861,80.50417,31-08-15,2.8
Madhya Pradesh Satna Nagod Nagod,24.57167,80.57778,31-08-15,7.7
Madhya Pradesh Satna Nagod Pathraundha,24.54028,80.65444,31-08-15,5.4
Madhya Pradesh Satna Nagod Singhpur,24.70167,80.58194,31-08-15,2.2
Madhya Pradesh Satna Rampur Baghelan Chorhata,24.38833,80.91667,31-08-15,2.8
Madhya Pradesh Satna Rampur Baghelan Kotar,24.69944,80.99500,31-08-15,3.8
Madhya Pradesh Satna Rampur Baghelan Rampur,24.51111,81.05639,31-08-15,0.6
Madhya Pradesh Satna Sohawal Barakalan,24.67056,80.78667,31-08-15,4.1
Madhya Pradesh Satna Sohawal Jhali,24.73194,80.68556,31-08-15,2.3
Madhya Pradesh Satna Sohawal Kothi,24.74722,80.77667,31-08-15,6.4
Madhya Pradesh Satna Sohawal Satna,24.56806,80.83194,31-08-15,6.1
Madhya Pradesh Satna Unchahara Bhatanwara,24.49194,80.85778,31-08-15,7.5
Madhya Pradesh Satna Unchahara Gobrao Kalan,24.44444,80.77917,31-08-15,2.0
Madhya Pradesh Satna Unchahara Pahari,24.39167,80.54722,31-08-15,9.0
Madhya Pradesh Satna Unchahara Paras Maniya,24.35028,80.61583,31-08-15,6.5
Madhya Pradesh Satna Unchahara Pondipithourabd,24.47167,80.75917,31-08-15,6.6
Madhya Pradesh Satna Unchahara Unchahara,24.36167,80.78111,31-08-15,6.5
Madhya Pradesh Sehore Ashta Ashta,23.02250,76.71583,31-08-15,0.8
Madhya Pradesh Sehore Ashta Jawar,23.00667,76.50583,31-08-15,5.0
August month Depth to Water Level (In mbgl) Data of Unconfined Aquifer STATE_UT DISTRICT BLOCK VILLAGE_NA LATITUDE LONGITUDE Date WL(mbgl) Madhya Pradesh Sehore Ashta Khachrod,22.87222,76.71750,31-08-15,1.1
Madhya Pradesh Sehore Budni Bhaya,22.73444,77.55583,31-08-15,9.9
Madhya Pradesh Sehore Budni Budhni,22.79667,77.68889,31-08-15,7.7
Madhya Pradesh Sehore Budni Budhni,22.79056,77.68333,31-08-15,7.5
Madhya Pradesh Sehore Budni Malibayan,22.75139,77.45361,31-08-15,3.6
Madhya Pradesh Sehore Budni Neelkachar,22.72222,77.50139,31-08-15,2.7
Madhya Pradesh Sehore Ichhawar Amlaha,23.11833,76.90333,31-08-15,1.0
Madhya Pradesh Sehore Ichhawar Ichhawar,23.03194,77.01889,31-08-15,2.7
Madhya Pradesh Sehore Ichhawar Kankad Kheda,23.10111,77.03556,31-08-15,3.6
Madhya Pradesh Sehore Ichhawar Nadan,22.89722,77.12222,31-08-15,3.2
Madhya Pradesh Sehore Nasrullaganj Larkui,22.81667,77.20917,31-08-15,1.2
Madhya Pradesh Sehore Nasrullaganj Rala,22.69028,77.31444,31-08-15,4.9
Madhya Pradesh Sehore Sehore Bhandeli,23.12417,77.26083,31-08-15,2.1
Madhya Pradesh Sehore Sehore Bilkisganj,23.14306,77.17306,31-08-15,9.0
Madhya Pradesh Sehore Sehore Chandbar,23.31750,77.04722,31-08-15,6.8
Madhya Pradesh Sehore Sehore Jattakheda,23.15333,76.96250,31-08-15,2.8
Madhya Pradesh Sehore Sehore Jharkheda,23.37222,77.18389,31-08-15,3.0
Madhya Pradesh Sehore Sehore Sehore,23.18472,77.06250,31-08-15,5.8
Madhya Pradesh Sehore Sehore Sehore,23.16167,77.05639,31-08-15,7.5
Madhya Pradesh Seoni Barghat Ari,21.94722,79.71194,31-08-15,2.7
Madhya Pradesh Seoni Barghat Dharamkuan,21.87500,79.76167,31-08-15,9.2
Madhya Pradesh Seoni Barghat Kalyanpur,21.96056,79.81167,31-08-15,2.4
Madhya Pradesh Seoni Barghat Kauria,22.01722,79.84306,31-08-15,3.9
Madhya Pradesh Seoni Chhapara Chhapara,22.39389,79.54583,31-08-15,4.6
Madhya Pradesh Seoni Chhapara Ghunai,22.44111,79.56528,31-08-15,0.7
Madhya Pradesh Seoni Dhanaura Dhanaura,22.52944,79.83778,31-08-15,1.7
Madhya Pradesh Seoni Dhanaura Khamaria,22.59861,79.79111,31-08-15,6.2
Madhya Pradesh Seoni Dhanaura Kudari,22.40750,79.81250,31-08-15,5.9
Madhya Pradesh Seoni Dhanaura Mehta,22.63056,79.86611,31-08-15,7.3
Madhya Pradesh Seoni Kahnapas(Ghansaur) Ghansor,22.65417,79.95250,31-08-15,3.3
Madhya Pradesh Seoni Kahnapas(Ghansaur) Gorakhpur,22.74250,79.91361,31-08-15,0.0
Madhya Pradesh Seoni Kahnapas(Ghansaur) Kuropar,22.63806,80.03528,31-08-15,2.3
Madhya Pradesh Seoni Kahnapas(Ghansaur) Masurbhanwari,22.63750,80.14389,31-08-15,4.4
Madhya Pradesh Seoni Keolari Banjal,22.30611,79.99861,31-08-15,7.0
Madhya Pradesh Seoni Keolari Dhangada,22.32083,79.86139,31-08-15,6.0
Madhya Pradesh Seoni Keolari Keolari,22.37139,79.91083,31-08-15,2.6
Madhya Pradesh Seoni Keolari Pandiachhappara,22.12639,80.00222,31-08-15,3.1
Madhya Pradesh Seoni Keolari Ugli,22.25750,80.06306,31-08-15,0.8
Madhya Pradesh Seoni Kurai Khawasa,21.76194,79.47194,31-08-15,7.4
Madhya Pradesh Seoni Kurai Kurai,21.80639,79.50083,31-08-15,4.7
Madhya Pradesh Seoni Kurai Piparia,21.78278,79.48778,31-08-15,4.2
Madhya Pradesh Seoni Kurai Rukhar,21.87389,79.53056,31-08-15,7.3
August month Depth to Water Level (In mbgl) Data of Unconfined Aquifer STATE_UT DISTRICT BLOCK VILLAGE_NA LATITUDE LONGITUDE Date WL(mbgl) Madhya Pradesh Seoni Kurai Suktara,21.93417,79.52306,31-08-15,5.1
Madhya Pradesh Seoni Lakhnadon Banjari,22.81806,79.75833,31-08-15,1.8
Madhya Pradesh Seoni Lakhnadon Dargada,22.92861,79.63750,31-08-15,1.0
Madhya Pradesh Seoni Lakhnadon Dhuma,22.75000,79.72278,31-08-15,4.5
Madhya Pradesh Seoni Lakhnadon Gaurabibi,22.70222,79.51306,31-08-15,2.0
Madhya Pradesh Seoni Lakhnadon Gharghatia,22.67278,79.78972,31-08-15,0.9
Madhya Pradesh Seoni Lakhnadon Lakhnadon,22.59861,79.61250,31-08-15,2.2
Madhya Pradesh Seoni Lakhnadon Madai,22.54028,79.59500,31-08-15,2.2
Madhya Pradesh Seoni Lakhnadon Makarjhir,22.69056,79.68333,31-08-15,1.8
Madhya Pradesh Seoni Lakhnadon Makarjhir,22.60611,79.72806,31-08-15,3.1
Madhya Pradesh Seoni Lakhnadon Nagan Deori,22.81806,79.66639,31-08-15,3.4
Madhya Pradesh Seoni Seoni Amagarh,22.01194,79.61250,31-08-15,5.7
Madhya Pradesh Seoni Seoni Bamandehi,22.04611,79.57972,31-08-15,9.1
Madhya Pradesh Seoni Seoni Bamhodi,22.06444,79.65806,31-08-15,6.1
Madhya Pradesh Seoni Seoni Chunatola,22.14694,79.66806,31-08-15,2.8
Madhya Pradesh Seoni Seoni Kaniwara,22.21194,79.73972,31-08-15,1.3
Madhya Pradesh Seoni Seoni Nandora,22.02000,79.53694,31-08-15,0.8
Madhya Pradesh Seoni Seoni Palari,22.30806,79.80917,31-08-15,3.4
Madhya Pradesh Seoni Seoni Pipardahi,22.05056,79.41250,31-08-15,4.1
Madhya Pradesh Seoni Seoni Rahiwara,22.22028,79.53556,31-08-15,2.5
Madhya Pradesh Seoni Seoni Seoni,22.09361,79.54722,31-08-15,9.1
Madhya Pradesh Seoni Seoni Seoni,22.09361,79.54722,31-08-15,0.7
Madhya Pradesh Shahdol Beohari Beohari,24.03167,81.37778,31-08-15,9.3
Madhya Pradesh Shahdol Beohari Pasgari,24.09806,81.43139,31-08-15,6.4
Madhya Pradesh Shahdol Burhar Bahgad,23.35472,81.66667,31-08-15,7.1
Madhya Pradesh Shahdol Burhar Bhikhampur,23.44083,81.67278,31-08-15,6.5
Madhya Pradesh Shahdol Burhar Burhar,23.22500,81.52444,31-08-15,13.4
Madhya Pradesh Shahdol Burhar Marjad,23.27083,81.58722,31-08-15,2.3
Madhya Pradesh Shahdol Gohparu Gohparu,23.49083,81.40944,31-08-15,5.5
Madhya Pradesh Shahdol Gohparu Sarsi,23.58111,81.40083,31-08-15,5.2
Madhya Pradesh Shahdol Jaisinghnagar Amjhor,23.66667,81.54583,31-08-15,5.4
Madhya Pradesh Shahdol Jaisinghnagar Bansukli,23.78667,81.61611,31-08-15,7.5
Madhya Pradesh Shahdol Jaisinghnagar Jaisinghnagar,23.67833,81.39667,31-08-15,15.3
Madhya Pradesh Shahdol Jaisinghnagar Jaisinghnagar,23.67833,81.39667,31-08-15,8.6
Madhya Pradesh Shahdol Jaisinghnagar Kanadi (Khurd),23.75611,81.36111,31-08-15,8.4
Madhya Pradesh Shahdol Jaisinghnagar Karki,23.80833,81.38806,31-08-15,8.4
Madhya Pradesh Shahdol Jaisinghnagar Sanousi,23.94861,81.45833,31-08-15,10.0
Madhya Pradesh Shahdol Jaisinghnagar Sidi,23.69167,81.66528,31-08-15,11.0
Madhya Pradesh Shahdol Jaisinghnagar Tihki,23.92833,81.36667,31-08-15,7.1
Madhya Pradesh Shahdol Jaisinghnagar Umarkhohi,23.85556,81.49389,31-08-15,12.4
Madhya Pradesh Shahdol Sohagpur Kanchanpur,23.26083,81.46194,31-08-15,7.0
Madhya Pradesh Shahdol Sohagpur Nipaniya,23.38917,81.37333,31-08-15,7.2
August month Depth to Water Level (In mbgl) Data of Unconfined Aquifer STATE_UT DISTRICT BLOCK VILLAGE_NA LATITUDE LONGITUDE Date WL(mbgl) Madhya Pradesh Shahdol Sohagpur Shahdol,23.29861,81.35972,31-08-15,4.8
Madhya Pradesh Shahdol Sohagpur Singhpur,23.21028,81.41806,31-08-15,7.2
Madhya Pradesh Shajapur Kalapipal Arandia,23.20778,76.73944,31-08-15,2.9
Madhya Pradesh Shajapur Kalapipal Kalapipal,23.33417,76.83333,31-08-15,1.8
Madhya Pradesh Shajapur Kalapipal Nandni,23.31806,76.93750,31-08-15,0.7
Madhya Pradesh Shajapur Moman Badodia Chouma,23.64944,76.22500,31-08-15,2.1
Madhya Pradesh Shajapur Moman Badodia Moman Badodia,23.60583,76.34111,31-08-15,0.7
Madhya Pradesh Shajapur Moman Badodia Moman Badodia,23.60583,76.34111,31-08-15,1.3
Madhya Pradesh Shajapur Moman Badodia Salsalai,23.46444,76.53806,31-08-15,1.7
Madhya Pradesh Shajapur Shajapur Majhania,23.44806,76.32139,31-08-15,0.9
Madhya Pradesh Shajapur Shajapur Makshi,23.25333,76.14750,31-08-15,2.2
Madhya Pradesh Shajapur Shajapur Narayangaon,23.47833,76.25639,31-08-15,2.1
Madhya Pradesh Shajapur Shajapur Panwadi,23.50444,76.40389,31-08-15,1.5
Madhya Pradesh Shajapur Shajapur Shajapur,23.42111,76.27639,31-08-15,2.7
Madhya Pradesh Shajapur Shajapur Tilawad Govind,23.31028,76.33333,31-08-15,3.0
Madhya Pradesh Shajapur Shujalpur Akodia,23.38194,76.59944,31-08-15,0.3
Madhya Pradesh Shajapur Shujalpur Jamner,23.32444,76.75083,31-08-15,0.2
Madhya Pradesh Shajapur Shujalpur Jamner,23.32444,76.75083,31-08-15,0.1
Madhya Pradesh Shajapur Shujalpur Shujalpur,23.40556,76.70944,31-08-15,1.4
Madhya Pradesh Sheopur Karahal Goras,25.53444,76.94500,31-08-15,4.2
Madhya Pradesh Sheopur Karahal Kalmi,25.58111,76.87861,31-08-15,0.4
Madhya Pradesh Sheopur Karahal Karahal,25.49306,77.05694,31-08-15,6.6
Madhya Pradesh Sheopur Karahal Kunorh,25.52861,77.19917,31-08-15,13.5
Madhya Pradesh Sheopur Karahal Nonpura,25.52222,77.13139,31-08-15,1.8
Madhya Pradesh Sheopur Sheopur Baroda,25.49056,76.65583,31-08-15,4.0
Madhya Pradesh Sheopur Sheopur Bhagwara,25.67333,76.61472,31-08-15,25.5
Madhya Pradesh Sheopur Sheopur Doti,25.67056,76.59861,31-08-15,5.0
Madhya Pradesh Sheopur Sheopur Pandola,25.54583,76.64444,31-08-15,3.0
Madhya Pradesh Sheopur Sheopur Rajpura,25.71000,76.68083,31-08-15,15.6
Madhya Pradesh Sheopur Sheopur Sheopur,25.66417,76.69611,31-08-15,13.3
Madhya Pradesh Sheopur Vijaypur Garhi,26.12000,77.30583,31-08-15,5.7
Madhya Pradesh Sheopur Vijaypur Ghaswani,25.89167,77.50611,31-08-15,5.0
Madhya Pradesh Sheopur Vijaypur Harkui,26.15889,77.17917,31-08-15,9.1
Madhya Pradesh Sheopur Vijaypur Pura,25.95333,76.99139,31-08-15,1.9
Madhya Pradesh Sheopur Vijaypur Shyampur,26.08111,77.03417,31-08-15,1.2
Madhya Pradesh Sheopur Vijaypur Vijaypur,26.05667,77.36444,31-08-15,9.3
Madhya Pradesh Shivpuri Badarwas Badarwas,24.97472,77.56806,31-08-15,3.9
Madhya Pradesh Shivpuri Badarwas Ganeshkhera,25.08667,77.79278,26-08-15,3.7
Madhya Pradesh Shivpuri Badarwas Khareh,25.10333,77.72417,31-08-15,3.1
Madhya Pradesh Shivpuri Karera Awas,25.47250,78.35111,31-08-15,6.1
Madhya Pradesh Shivpuri Karera Karera,25.45389,78.13639,31-08-15,7.7
Madhya Pradesh Shivpuri Karera Languri,25.48389,78.12250,31-08-15,10.3
August month Depth to Water Level (In mbgl) Data of Unconfined Aquifer STATE_UT DISTRICT BLOCK VILLAGE_NA LATITUDE LONGITUDE Date WL(mbgl) Madhya Pradesh Shivpuri Karera Sarsod,25.42250,78.05111,31-08-15,8.6
Madhya Pradesh Shivpuri Karera Sikandara,25.47222,78.36528,31-08-15,6.8
Madhya Pradesh Shivpuri Karera Sirsod Chouraha,25.42222,78.05056,31-08-15,7.5
Madhya Pradesh Shivpuri Karera Toda Karea,25.45278,78.18528,31-08-15,15.1
Madhya Pradesh Shivpuri Khaniadhana Achhroni,24.99222,78.23056,31-08-15,7.0
Madhya Pradesh Shivpuri Khaniadhana Bamorkalan,24.88583,78.15111,31-08-15,7.4
Madhya Pradesh Shivpuri Khaniadhana Bamorkalan,24.89167,78.15444,02-08-15,4.9
Madhya Pradesh Shivpuri Khaniadhana Masoori,25.10028,77.93028,31-08-15,4.7
Madhya Pradesh Shivpuri Kolaras Deherda Choraha,25.12306,77.60361,31-08-15,1.6
Madhya Pradesh Shivpuri Narwar Behgwan,25.62861,78.10333,31-08-15,7.9
Madhya Pradesh Shivpuri Narwar Mangroni,25.69611,77.93250,31-08-15,3.5
Madhya Pradesh Shivpuri Narwar Narwar,25.65083,77.83278,31-08-15,6.1
Madhya Pradesh Shivpuri Pichhore Bhutni,25.31972,78.10000,31-08-15,7.2
Madhya Pradesh Shivpuri Pichhore Dhola,25.28250,78.13000,31-08-15,1.7
Madhya Pradesh Shivpuri Pichhore Pichhore,25.17917,78.19083,31-08-15,4.5
Madhya Pradesh Shivpuri Pichhore Semri,25.18222,78.11194,31-08-15,5.5
Madhya Pradesh Shivpuri Pohri Ainpura,25.64722,77.40972,31-08-15,9.0
Madhya Pradesh Shivpuri Pohri Gobardhan,25.78972,77.53389,31-08-15,7.0
Madhya Pradesh Shivpuri Pohri Pohari,25.54139,77.36500,31-08-15,2.5
Madhya Pradesh Shivpuri Shivpuri Bhagora,25.41806,77.76028,31-08-15,3.8
Madhya Pradesh Shivpuri Shivpuri Chorpura,25.72694,77.73583,31-08-15,13.1
Madhya Pradesh Shivpuri Shivpuri Patera,25.61028,77.73611,31-08-15,3.0
Madhya Pradesh Shivpuri Shivpuri Santanwara,25.54444,77.73111,31-08-15,4.3
Madhya Pradesh Shivpuri Shivpuri Sirsod,25.48556,77.50972,31-08-15,3.3
Madhya Pradesh Shivpuri Shivpuri Survaya,25.41333,77.83472,31-08-15,3.3
Madhya Pradesh Sidhi Majhauli Bastua,23.98667,81.70861,31-08-15,3.9
Madhya Pradesh Sidhi Majhauli Chhuhi,24.18583,81.65583,31-08-15,9.1
Madhya Pradesh Sidhi Majhauli Dhuandol,24.10167,81.84778,31-08-15,4.8
Madhya Pradesh Sidhi Majhauli Jogipahari,24.11556,81.75000,31-08-15,12.8
Madhya Pradesh Sidhi Majhauli Mahua Gaon,24.04694,81.94667,31-08-15,6.1
Madhya Pradesh Sidhi Majhauli Majhauli,24.12000,81.63000,31-08-15,8.5
Madhya Pradesh Sidhi Majhauli Majhgawan,24.10139,81.81917,31-08-15,4.5
Madhya Pradesh Sidhi Majhauli Parsilli,24.14667,81.48833,31-08-15,14.9
Madhya Pradesh Sidhi Majhauli Semariha,24.13278,81.55222,31-08-15,2.3
Madhya Pradesh Sidhi Majhauli Tansar,24.04500,81.92222,31-08-15,8.6
Madhya Pradesh Sidhi Majhauli Tikri,24.16194,81.86250,31-08-15,4.1
Madhya Pradesh Sidhi Rampur Naikin Baghwar,24.33111,81.37917,31-08-15,6.4
Madhya Pradesh Sidhi Rampur Naikin Chouphal,24.28861,81.78750,31-08-15,6.9
Madhya Pradesh Sidhi Rampur Naikin Chourhat,24.42500,81.67333,31-08-15,2.8
Madhya Pradesh Sidhi Rampur Naikin Khamh,24.23750,81.73833,31-08-15,7.4
Madhya Pradesh Sidhi Rampur Naikin Parsilli,24.19000,81.48333,31-08-15,13.8
Madhya Pradesh Sidhi Rampur Naikin Rampur,24.34306,81.48083,31-08-15,9.8
August month Depth to Water Level (In mbgl) Data of Unconfined Aquifer STATE_UT DISTRICT BLOCK VILLAGE_NA LATITUDE LONGITUDE Date WL(mbgl) Madhya Pradesh Sidhi Rampur Naikin Rampur Naikin,24.34306,81.48083,31-08-15,7.5
Madhya Pradesh Sidhi Sidhi Badhaora,24.39639,81.75472,31-08-15,4.4
Madhya Pradesh Sidhi Sidhi Baghwari,24.35333,81.82583,31-08-15,6.8
Madhya Pradesh Sidhi Sidhi Barambaba,24.27500,81.90194,31-08-15,3.1
Madhya Pradesh Sidhi Sidhi Chilheri Kalan,24.45833,81.79167,31-08-15,17.2
Madhya Pradesh Sidhi Sidhi Hatwa,24.50833,81.99167,31-08-15,10.1
Madhya Pradesh Sidhi Sidhi Jogikothar,24.41944,82.03750,31-08-15,4.3
Madhya Pradesh Sidhi Sidhi Kuchwahi,24.40611,81.97694,31-08-15,6.5
Madhya Pradesh Sidhi Sidhi Patpara,24.48500,81.89028,31-08-15,3.1
Madhya Pradesh Sidhi Sidhi Sidhi,24.41528,81.88750,31-08-15,8.5
Madhya Pradesh Sidhi Sidhi Sidhi,24.40278,81.88750,31-08-15,8.0
Madhya Pradesh Sidhi Sihawal Amiliya,24.54722,82.13083,31-08-15,16.4
Madhya Pradesh Sidhi Sihawal Amiliya,24.54722,82.13083,31-08-15,17.1
Madhya Pradesh Sidhi Sihawal Bahari,24.44667,82.17083,31-08-15,12.1
Madhya Pradesh Sidhi Sihawal Padariya,24.43222,82.09861,31-08-15,9.4
Madhya Pradesh Sidhi Sihawal Sihawal,24.56167,82.23917,31-08-15,7.2
Madhya Pradesh Singrauli Baidhan Chaura,24.01111,82.47167,31-08-15,4.9
Madhya Pradesh Singrauli Baidhan Gaderiya,24.15556,82.48556,31-08-15,4.1
Madhya Pradesh Singrauli Baidhan Jamgadi,24.03972,82.31778,31-08-15,5.8
Madhya Pradesh Singrauli Baidhan Jattha Tola,24.04722,82.25583,31-08-15,6.3
Madhya Pradesh Singrauli Baidhan Koyal Khunth,23.94556,82.48500,31-08-15,4.0
Madhya Pradesh Singrauli Baidhan Mara,23.89722,82.50278,31-08-15,8.2
Madhya Pradesh Singrauli Baidhan Parsauna,24.08917,82.55750,31-08-15,6.1
Madhya Pradesh Singrauli Devsar Baragawan,24.19639,82.45583,31-08-15,11.1
Madhya Pradesh Singrauli Devsar Bargawan,24.19639,82.45583,31-08-15,10.1
Madhya Pradesh Singrauli Devsar Betaha Dand,24.23861,82.37722,31-08-15,3.0
Madhya Pradesh Singrauli Devsar Bharra,24.38333,82.25972,31-08-15,5.1
Madhya Pradesh Singrauli Devsar Chamari Dol,24.00111,82.10583,31-08-15,2.4
Madhya Pradesh Singrauli Devsar Devsar,24.31889,82.30417,31-08-15,15.7
Madhya Pradesh Singrauli Devsar Devsar,24.31889,82.30417,31-08-15,16.4
Madhya Pradesh Singrauli Devsar Karthua,24.39472,82.24389,31-08-15,12.6
Madhya Pradesh Singrauli Devsar Kohara Khoh,24.26778,82.34250,31-08-15,7.1
Madhya Pradesh Singrauli Devsar Papal Khera,24.12028,81.93417,31-08-15,8.2
Madhya Pradesh Singrauli Devsar Parasi,24.04000,82.04139,31-08-15,5.0
Madhya Pradesh Singrauli Devsar Sarai,24.04167,82.20556,31-08-15,3.9
Madhya Pradesh Singrauli Devsar Sarai,24.03972,82.20389,31-08-15,4.6
Madhya Pradesh Tikamgarh Baldeogarh Baldeogarh,24.75611,79.05000,31-08-15,5.8
Madhya Pradesh Tikamgarh Baldeogarh Manikpur,24.84806,79.17056,31-08-15,3.4
Madhya Pradesh Tikamgarh Jatara Bawri,24.92000,78.83861,31-08-15,1.4
Madhya Pradesh Tikamgarh Jatara Bela,25.07750,79.33333,31-08-15,6.2
Madhya Pradesh Tikamgarh Jatara Digaura,24.96583,78.85139,31-08-15,6.1
Madhya Pradesh Tikamgarh Jatara Digaura,24.97111,78.83944,31-08-15,6.5
August month Depth to Water Level (In mbgl) Data of Unconfined Aquifer STATE_UT DISTRICT BLOCK VILLAGE_NA LATITUDE LONGITUDE Date WL(mbgl) Madhya Pradesh Tikamgarh Jatara Jatara,25.00306,79.04750,31-08-15,5.9
Madhya Pradesh Tikamgarh Jatara Ladhaura,25.07167,78.87306,31-08-15,3.6
Madhya Pradesh Tikamgarh Palera Bamori,25.12528,79.09444,31-08-15,9.5
Madhya Pradesh Tikamgarh Palera Palera,25.02361,79.22500,31-08-15,6.3
Madhya Pradesh Tikamgarh Palera Palera,25.02361,79.23750,31-08-15,4.7
Madhya Pradesh Tikamgarh Tikamgarh Baragaon,24.57194,79.02194,31-08-15,7.6
Madhya Pradesh Tikamgarh Tikamgarh Kundeshwar,24.69750,78.79833,31-08-15,5.8
Madhya Pradesh Tikamgarh Tikamgarh Majna,24.83639,78.99722,31-08-15,7.6
Madhya Pradesh Tikamgarh Tikamgarh Mawai,24.79444,78.92833,31-08-15,2.3
Madhya Pradesh Tikamgarh Tikamgarh Tikamgarh,24.75694,78.83472,31-08-15,3.5
Madhya Pradesh Tikamgarh Tikamgarh Tikamgarh,24.74389,78.83806,31-08-15,5.3
Madhya Pradesh Ujjain Badnagar Badnagar,23.04472,75.37889,31-08-15,3.2
Madhya Pradesh Ujjain Badnagar Chhoti Ghadsod,23.10833,75.45278,31-08-15,3.4
Madhya Pradesh Ujjain Badnagar Ingoria,23.14417,75.55417,31-08-15,3.0
Madhya Pradesh Ujjain Badnagar Kharotia,23.15722,75.62389,31-08-15,2.7
Madhya Pradesh Ujjain Badnagar Runija,23.16389,75.26389,31-08-15,0.7
Madhya Pradesh Ujjain Ghatiya Bachhukhera,23.31056,75.79222,31-08-15,2.6
Madhya Pradesh Ujjain Ghatiya Nazarpur,23.34472,75.84917,31-08-15,1.5
Madhya Pradesh Ujjain Ghatiya Nimanwasa,23.38028,75.86194,31-08-15,2.2
Madhya Pradesh Ujjain Ghatiya Ruie,23.28611,75.65194,31-08-15,2.3
Madhya Pradesh Ujjain Khacharod Khachrod,23.42611,75.28250,31-08-15,6.5
Madhya Pradesh Ujjain Khacharod Khachrod,23.42556,75.28333,31-08-15,1.2
Madhya Pradesh Ujjain Khacharod Nagda,23.44778,75.41028,31-08-15,3.7
Madhya Pradesh Ujjain Khacharod Unhel,23.33556,75.54944,31-08-15,3.3
Madhya Pradesh Ujjain Mahidpur Delchi Buzurg,23.53250,75.57083,31-08-15,3.6
Madhya Pradesh Ujjain Mahidpur Ghosla,23.43917,75.87611,31-08-15,1.8
Madhya Pradesh Ujjain Mahidpur Gogapur,23.55667,75.51611,31-08-15,4.0
Madhya Pradesh Ujjain Mahidpur Jharda,23.60278,75.75889,31-08-15,2.6
Madhya Pradesh Ujjain Mahidpur Khera Khajuria,23.46167,75.79611,31-08-15,0.6
Madhya Pradesh Ujjain Mahidpur Mahidpur,23.49111,75.66667,31-08-15,1.5
Madhya Pradesh Ujjain Mahidpur Mahidpur,23.56667,75.50833,31-08-15,3.0
Madhya Pradesh Ujjain Mahidpur Mahidpur,23.48944,75.66528,31-08-15,1.2
Madhya Pradesh Ujjain Mahidpur Raghvi,23.44722,75.83750,31-08-15,2.7
Madhya Pradesh Ujjain Tarana Dablahardu,23.49278,75.89500,31-08-15,3.9
Madhya Pradesh Ujjain Tarana Kaitha,23.23361,76.01806,31-08-15,6.1
Madhya Pradesh Ujjain Tarana Kaiytha,23.23306,76.01833,31-08-15,4.3
Madhya Pradesh Ujjain Tarana Khakri Sultan,23.39861,76.01333,31-08-15,1.9
Madhya Pradesh Ujjain Tarana Makdon,23.50417,76.15500,31-08-15,0.5
Madhya Pradesh Ujjain Tarana Makdon,23.50222,76.07222,31-08-15,3.1
Madhya Pradesh Ujjain Tarana Pat,23.54889,75.90250,31-08-15,0.2
Madhya Pradesh Ujjain Tarana Rupakhedi,23.47306,75.97139,31-08-15,2.7
Madhya Pradesh Ujjain Tarana Sumra Kheda,23.26667,76.06167,31-08-15,4.2
August month Depth to Water Level (In mbgl) Data of Unconfined Aquifer STATE_UT DISTRICT BLOCK VILLAGE_NA LATITUDE LONGITUDE Date WL(mbgl) Madhya Pradesh Ujjain Tarana Tarana,23.34083,76.03889,31-08-15,2.9
Madhya Pradesh Ujjain Tarana Tarana,23.34056,76.04028,31-08-15,2.9
Madhya Pradesh Ujjain Ujjain Ambodia,23.20361,75.64778,31-08-15,2.3
Madhya Pradesh Ujjain Ujjain Chakrawada,23.25639,75.71111,31-08-15,2.4
Madhya Pradesh Ujjain Ujjain Dabla Rehwari,23.25444,75.81556,31-08-15,2.1
Madhya Pradesh Ujjain Ujjain Naikhedi,23.20417,75.67528,31-08-15,4.3
Madhya Pradesh Ujjain Ujjain Narwar,23.08000,75.90194,31-08-15,3.3
Madhya Pradesh Ujjain Ujjain Palkhanda,23.04056,75.94806,31-08-15,1.9
Madhya Pradesh Ujjain Ujjain Patpala,23.19722,75.86667,31-08-15,0.9
Madhya Pradesh Ujjain Ujjain Ujjain,23.16444,75.81167,31-08-15,2.6
Madhya Pradesh Ujjain Ujjain Ujjain,23.18583,75.78222,31-08-15,3.1
Madhya Pradesh Ujjain Ujjain Vijayganj Mandi,23.22167,75.95139,31-08-15,5.5
Madhya Pradesh Umaria Karkeli Bichua,23.46556,80.74667,31-08-15,1.5
Madhya Pradesh Umaria Karkeli Karkeli,23.46444,80.90639,31-08-15,9.7
Madhya Pradesh Umaria Karkeli Nigari,23.40889,80.68333,31-08-15,1.5
Madhya Pradesh Umaria Karkeli Nowrozabad,23.39278,80.98278,31-08-15,7.7
Madhya Pradesh Umaria Manpur Dhamokhar,23.63000,80.92222,31-08-15,8.9
Madhya Pradesh Umaria Manpur Mahroi,23.95528,80.92639,31-08-15,4.2
Madhya Pradesh Umaria Manpur Manpura,23.76111,81.12250,31-08-15,9.1
Madhya Pradesh Umaria Manpur Panpatha,23.86944,81.00472,31-08-15,13.4
Madhya Pradesh Umaria Manpur Parasi,23.66444,80.94361,31-08-15,5.2
Madhya Pradesh Umaria Manpur Tala,23.72139,81.02083,31-08-15,7.4
Madhya Pradesh Umaria Manpur Umaria,23.52500,80.83944,31-08-15,9.4
Madhya Pradesh Umaria Pali Amiliya,23.32194,81.29778,31-08-15,7.2
Madhya Pradesh Umaria Pali Birsinghpur,23.36667,81.04000,31-08-15,5.5
Madhya Pradesh Umaria Pali Ghunghuti,23.34917,81.19250,31-08-15,12.8
Madhya Pradesh Umaria Pali Gungutti,23.35000,81.19389,26-08-15,8.3
Madhya Pradesh Vidisha Basoda Bagrodcrossing,23.73278,78.17639,31-08-15,5.6
Madhya Pradesh Vidisha Basoda Bareth,23.91333,77.99972,31-08-15,1.4
Madhya Pradesh Vidisha Basoda Ganjbasoda,23.86306,77.92444,31-08-15,1.9
Madhya Pradesh Vidisha Basoda Ghatera,23.80667,78.12361,31-08-15,3.1
Madhya Pradesh Vidisha Basoda Malkapur,23.97889,77.85083,31-08-15,0.3
Madhya Pradesh Vidisha Basoda Udaipur,23.90083,78.05500,31-08-15,1.5
Madhya Pradesh Vidisha Gyaraspur Atari Khejda,23.61528,78.02833,31-08-15,2.1
Madhya Pradesh Vidisha Gyaraspur Gyaraspur,23.66667,78.11389,31-08-15,6.3
Madhya Pradesh Vidisha Gyaraspur Gyaraspur,23.66667,78.11444,31-08-15,6.1
Madhya Pradesh Vidisha Kurwai Kurwai,24.12611,78.03889,31-08-15,1.9
Madhya Pradesh Vidisha Kurwai Kurwai,24.12500,78.04333,31-08-15,1.7
Madhya Pradesh Vidisha Lateri Anandpur,24.16667,77.44250,31-08-15,1.0
Madhya Pradesh Vidisha Lateri Islam Nagar,24.07000,77.51722,31-08-15,8.2
Madhya Pradesh Vidisha Lateri Lateri,24.05750,77.40722,31-08-15,3.9
Madhya Pradesh Vidisha Lateri Lateri,24.06056,77.40667,31-08-15,1.4
August month Depth to Water Level (In mbgl) Data of Unconfined Aquifer STATE_UT DISTRICT BLOCK VILLAGE_NA LATITUDE LONGITUDE Date WL(mbgl) Madhya Pradesh Vidisha Lateri Tajpur,24.06194,77.29306,31-08-15,4.0
Madhya Pradesh Vidisha Nateran Mohanpura,23.79583,77.53056,31-08-15,1.0
Madhya Pradesh Vidisha Nateran Nateran,23.76167,77.77500,31-08-15,2.8
Madhya Pradesh Vidisha Nateran Tinsiyai,23.77167,77.60917,31-08-15,4.9
Madhya Pradesh Vidisha Sironj Dehri Jagir,24.04083,77.78556,31-08-15,0.5
Madhya Pradesh Vidisha Sironj Deopur,24.15528,77.62139,31-08-15,1.3
Madhya Pradesh Vidisha Sironj Patharia,24.11472,77.81917,31-08-15,0.7
Madhya Pradesh Vidisha Sironj Sironj,24.09500,77.67556,31-08-15,9.2
Madhya Pradesh Vidisha Sironj Sironj,24.09861,77.68861,31-08-15,5.5
Madhya Pradesh Vidisha Vidisha Bagri,23.56806,77.76500,31-08-15,2.0
Madhya Pradesh Vidisha Vidisha Bilari,23.57833,77.69806,31-08-15,4.5
Madhya Pradesh Vidisha Vidisha Hirnai,23.56750,77.95000,31-08-15,0.9
Madhya Pradesh Vidisha Vidisha Imaliya,23.57556,77.78056,31-08-15,2.1
Madhya Pradesh Vidisha Vidisha Salaiya,23.60778,77.57611,31-08-15,4.8
Madhya Pradesh Vidisha Vidisha Vidisha,23.51667,77.79917,31-08-15,7.4
Madhya Pradesh Vidisha Vidisha Vidisha,23.52556,77.82361,31-08-15,2.8
Maharashtra Ahmednagar Akole Akole,19.53333,74.03333,27-08-15,3.9
Maharashtra Ahmednagar Akole Rajur,19.52500,73.92500,27-08-15,1.9
Maharashtra Ahmednagar Jamkhed Arangaon,18.67472,75.18139,30-08-15,8.1
Maharashtra Ahmednagar Jamkhed Jamkhed,18.73333,75.31667,30-08-15,8.8
Maharashtra Ahmednagar Jamkhed Jamkhed,18.70722,75.29722,30-08-15,9.0
Maharashtra Ahmednagar Karjat Baradgaon Sudrik,18.45833,74.82333,30-08-15,7.4
Maharashtra Ahmednagar Karjat Bhitkewadi,18.64444,74.89667,30-08-15,8.5
Maharashtra Ahmednagar Karjat Kolwadi,18.51667,74.98333,30-08-15,8.3
Maharashtra Ahmednagar Karjat Mirajgaon,18.71667,75.03333,30-08-15,11.0
Maharashtra Ahmednagar Karjat Mirajgaon,18.72222,75.21667,30-08-15,14.2
Maharashtra Ahmednagar Karjat Pategaon,18.63333,75.10000,30-08-15,3.7
Maharashtra Ahmednagar Karjat Rassin,18.43333,74.93333,30-08-15,12.8
Maharashtra Ahmednagar Karjat Wadarwadi,18.45278,74.74944,30-08-15,14.1
Maharashtra Ahmednagar Karjat Walvad,18.63333,74.88333,30-08-15,10.3
Maharashtra Ahmednagar Kopargaon Kolpewadi,19.89444,74.35694,30-08-15,7.5
Maharashtra Ahmednagar Kopargaon Kopargaon,19.88472,74.47500,27-08-15,18.5
Maharashtra Ahmednagar Kopargaon Loni-Pravara Nagar,19.59194,74.48194,27-08-15,10.3
Maharashtra Ahmednagar Kopargaon Rahata,19.71667,74.48333,27-08-15,11.7
Maharashtra Ahmednagar Nagar Chas,19.00000,74.63333,29-08-15,8.0
Maharashtra Ahmednagar Nagar Chichondi Patil,19.00139,74.91667,31-08-15,14.4
Maharashtra Ahmednagar Nagar Dahigaon,18.96250,74.80694,30-08-15,6.2
Maharashtra Ahmednagar Nagar Dehre,19.23333,74.66667,29-08-15,12.0
Maharashtra Ahmednagar Nagar Jakhangaon,19.10556,74.63056,29-08-15,15.5
Maharashtra Ahmednagar Nagar Jeur,19.21250,74.80556,29-08-15,12.5
Maharashtra Ahmednagar Nagar Khosepuri,19.27139,74.85194,29-08-15,5.5
Maharashtra Ahmednagar Nagar Shahpur,19.08889,74.82139,29-08-15,5.3
August month Depth to Water Level (In mbgl) Data of Unconfined Aquifer STATE_UT DISTRICT BLOCK VILLAGE_NA LATITUDE LONGITUDE Date WL(mbgl) Maharashtra Ahmednagar Nagar Takle-Kazi,19.03333,74.83333,31-08-15,9.5
Maharashtra Ahmednagar Nevasa Ghodegaon,19.35528,74.87333,29-08-15,10.5
Maharashtra Ahmednagar Nevasa Kokona,19.41806,75.08750,28-08-15,9.2
Maharashtra Ahmednagar Nevasa Shirasgaon,19.55000,75.11250,28-08-15,12.4
Maharashtra Ahmednagar Nevasa Sonai,19.39583,74.82083,29-08-15,3.1
Maharashtra Ahmednagar Nevasa Wadala Bhairoba,19.43333,74.90000,29-08-15,9.5
Maharashtra Ahmednagar Parner Parner,19.00417,74.40139,29-08-15,7.0
Maharashtra Ahmednagar Parner Supe,18.95972,74.53889,29-08-15,4.5
Maharashtra Ahmednagar Rahuri Bambori,19.28889,74.73750,29-08-15,10.3
Maharashtra Ahmednagar Rahuri Devlali,19.47500,74.62083,29-08-15,5.5
Maharashtra Ahmednagar Rahuri Rahuri,19.38889,74.65833,29-08-15,12.0
Maharashtra Ahmednagar Sangamner Ambikhalsa,19.35000,74.17500,27-08-15,13.1
Maharashtra Ahmednagar Sangamner Bote,19.27778,74.22778,27-08-15,6.2
Maharashtra Ahmednagar Sangamner Chandanapuri,19.48333,74.20000,27-08-15,21.5
Maharashtra Ahmednagar Sangamner Kokangaon,19.59167,74.30000,27-08-15,9.5
Maharashtra Ahmednagar Sangamner Mirpur Lohare,19.63250,74.39278,20-08-15,20.6
Maharashtra Ahmednagar Sangamner Sangamner,19.56667,74.22083,27-08-15,12.6
Maharashtra Ahmednagar Sangamner Tambhol,19.51667,74.25278,27-08-15,3.3
Maharashtra Ahmednagar Shevgaon Ghotan,19.40000,75.30000,28-08-15,9.8
Maharashtra Ahmednagar Shevgaon Rakshi,19.35556,75.31667,28-08-15,8.5
Maharashtra Ahmednagar Shrigonda Banpimpri,18.83333,74.86667,30-08-15,8.7
Maharashtra Ahmednagar Shrigonda Belvandi (Bk),18.72583,74.59417,30-08-15,19.0
Maharashtra Ahmednagar Shrigonda Chikhale,18.86667,74.71667,30-08-15,10.4
Maharashtra Ahmednagar Shrigonda Ghogargaon,18.81194,74.89611,30-08-15,6.6
Maharashtra Ahmednagar Shrigonda Shrigonda,18.61667,74.71667,30-08-15,14.3
Maharashtra Ahmednagar Shrigonda Vadegaon Madhe,18.61667,74.61667,30-08-15,11.1
Maharashtra Ahmednagar Shrirampur Babhuleshwar,19.60000,74.50833,27-08-15,4.8
Maharashtra Ahmednagar Shrirampur Rajuri,19.60833,74.54583,27-08-15,8.3
Maharashtra Ahmednagar Shrirampur Shrirampur,19.62917,74.65833,27-08-15,2.2
Maharashtra Akola Akola Akola,20.73667,77.00722,27-08-15,11.8
Maharashtra Akola Akola Borgaon Manju,20.73333,77.12778,24-08-15,1.9
Maharashtra Akola Akola Kurankhed,20.71667,77.26667,24-08-15,9.0
Maharashtra Akola Akola Majhari,20.59000,76.92194,26-08-15,7.0
Maharashtra Akola Akola Ugwawadi,20.79917,76.99917,27-08-15,24.2
Maharashtra Akola Akot Akot,21.11667,77.05000,27-08-15,21.8
Maharashtra Akola Akot Dhaga Phata,21.07722,77.10083,27-08-15,27.9
Maharashtra Akola Akot Panaj,21.14389,77.13639,27-08-15,13.0
Maharashtra Akola Akot Patsul,20.98611,77.02083,26-08-15,6.3
Maharashtra Akola Akot Popetkheda,21.20833,77.07917,27-08-15,9.0
Maharashtra Akola Akot Raundala,20.97750,76.96833,27-08-15,11.2
Maharashtra Akola Akot Umra,21.13333,77.00000,27-08-15,30.8
Maharashtra Akola Balapur Babulkhed,20.66667,76.76667,26-08-15,19.3
August month Depth to Water Level (In mbgl) Data of Unconfined Aquifer STATE_UT DISTRICT BLOCK VILLAGE_NA LATITUDE LONGITUDE Date WL(mbgl) Maharashtra Akola Balapur Kanheri Gawali,20.65917,76.83444,26-08-15,1.4
Maharashtra Akola Balapur Ural,20.80694,76.82500,29-08-15,7.6
Maharashtra Akola Balapur Wadegaon,20.59167,76.86667,26-08-15,14.7
Maharashtra Akola Balapur Wyala,20.67500,76.88750,26-08-15,11.4
Maharashtra Akola Barshitakli Barshitakli,20.58333,77.06667,25-08-15,9.6
Maharashtra Akola Barshitakli Barshitakli,20.57611,77.07028,25-08-15,14.2
Maharashtra Akola Barshitakli Donad,20.56056,77.17833,25-08-15,5.2
Maharashtra Akola Barshitakli Hatola,20.50639,77.20444,25-08-15,3.1
Maharashtra Akola Barshitakli Kanheri (Sarap),20.63750,77.05000,25-08-15,2.0
Maharashtra Akola Barshitakli Mahan,20.49528,77.16028,25-08-15,8.8
Maharashtra Akola Barshitakli Pinjar,20.54722,77.25556,25-08-15,3.9
Maharashtra Akola Murtijapur Malkapur,20.74306,77.45139,24-08-15,17.8
Maharashtra Akola Murtijapur Murtijapur,20.73472,77.37139,24-08-15,2.5
Maharashtra Akola Murtijapur Rasulpur,20.80750,77.36056,24-08-15,17.2
Maharashtra Akola Patur Alegaon,20.40972,76.85333,26-08-15,2.5
Maharashtra Akola Patur Ambashi,20.45667,76.85917,26-08-15,3.5
Maharashtra Akola Patur Chani,20.46111,76.77500,26-08-15,5.9
Maharashtra Akola Patur Chikhalwal (Navegaon),20.34583,76.87500,26-08-15,5.0
Maharashtra Akola Patur Patur,20.45000,76.93333,26-08-15,2.4
Maharashtra Akola Patur Sasti,20.50806,76.83306,26-08-15,8.8
Maharashtra Akola Telhara Telhara,21.03333,76.83333,27-08-15,30.0
Maharashtra Amravati Achalpur Kharapi,21.33778,77.57056,22-08-15,5.3
Maharashtra Amravati Achalpur Pathrot,21.21444,77.36500,23-08-15,27.0
Maharashtra Amravati Amravati Amravati,20.95667,77.75750,24-08-15,4.8
Maharashtra Amravati Amravati Amravati,20.89944,77.74833,24-08-15,1.1
Maharashtra Amravati Amravati Amravati,20.93417,77.78194,24-08-15,5.5
Maharashtra Amravati Amravati Amravati,20.93722,77.80417,24-08-15,1.3
Maharashtra Amravati Amravati Amravati,20.92833,77.79222,24-08-15,1.5
Maharashtra Amravati Amravati Badnera,20.84444,77.72861,24-08-15,3.2
Maharashtra Amravati Amravati Nandgaon,21.02500,77.83333,25-08-15,2.0
Maharashtra Amravati Amravati Pohra,20.88611,77.87500,24-08-15,2.0
Maharashtra Amravati Amravati Walgaon,21.01667,77.70000,23-08-15,2.9
Maharashtra Amravati Anjangaon S Nimbhari,21.05000,77.31250,23-08-15,4.1
Maharashtra Amravati Anjangaon S Sategaon,21.16306,77.24139,23-08-15,30.1
Maharashtra Amravati Bhatkuli Ashti,21.05861,77.64750,23-08-15,3.0
Maharashtra Amravati Chandur Bz Brahmanwada,21.32139,77.73556,20-08-15,11.8
Maharashtra Amravati Chandur Bz Chandur Bazar,21.23333,77.73333,20-08-15,24.0
Maharashtra Amravati Chandur Bz Dilalpur,21.27222,77.73639,20-08-15,20.5
Maharashtra Amravati Chandur Bz Karajgaon,21.40833,77.20167,20-08-15,27.1
Maharashtra Amravati Chandur Bz Paratwada,21.30833,77.52083,21-08-15,4.3
Maharashtra Amravati Chandur Bz Sirasgaon (Kasba),21.32778,77.68250,20-08-15,11.6
Maharashtra Amravati Chandur Bz Wishroli,21.35278,77.76528,20-08-15,8.0
August month Depth to Water Level (In mbgl) Data of Unconfined Aquifer STATE_UT DISTRICT BLOCK VILLAGE_NA LATITUDE LONGITUDE Date WL(mbgl) Maharashtra Amravati Chandur Ril Belteki,20.75500,77.92583,24-08-15,6.0
Maharashtra Amravati Chandur Ril Chandur Railway,20.81667,77.96667,24-08-15,2.4
Maharashtra Amravati Chandur Ril Devgaon,20.68333,78.15694,24-08-15,2.0
Maharashtra Amravati Chandur Ril Dhamangaon (Rly),20.81667,78.13750,24-08-15,1.6
Maharashtra Amravati Chandur Ril Manjarkhed Kasba,20.76250,77.93750,24-08-15,6.0
Maharashtra Amravati Chandur Ril Shendurjana Khurd,20.68333,78.10000,24-08-15,2.5
Maharashtra Amravati Chikhaldara Arao,21.42917,77.09444,22-08-15,0.5
Maharashtra Amravati Chikhaldara Barukheda,21.23333,76.83611,22-08-15,0.6
Maharashtra Amravati Chikhaldara Behali,21.39722,77.46111,21-08-15,3.3
Maharashtra Amravati Chikhaldara Chunkhedi,21.56667,77.41667,21-08-15,1.3
Maharashtra Amravati Chikhaldara Dargarh,21.26250,76.98056,22-08-15,2.4
Maharashtra Amravati Chikhaldara Hatru,21.68333,77.33611,21-08-15,1.3
Maharashtra Amravati Chikhaldara Khadkali,21.26639,77.09944,22-08-15,0.6
Maharashtra Amravati Chikhaldara Kolkaz,21.50000,77.20417,22-08-15,5.2
Maharashtra Amravati Chikhaldara Silona,21.43333,77.41667,21-08-15,2.6
Maharashtra Amravati Chikhaldara Wadgaon (Fattepur),21.28056,77.27500,23-08-15,6.0
Maharashtra Amravati Daryapur Samda Kasmpur,20.92694,77.26306,23-08-15,2.8
Maharashtra Amravati Daryapur Wadner Gangai,21.05000,77.18333,23-08-15,5.5
Maharashtra Amravati Daryapur Yewada,20.99472,77.45861,25-08-15,6.0
Maharashtra Amravati Dharni Bhokarbardi,21.51389,76.78056,22-08-15,0.8
Maharashtra Amravati Dharni Dhulghat Road,21.53056,76.77583,22-08-15,10.9
Maharashtra Amravati Dharni Harisal,21.53333,77.11667,22-08-15,4.9
Maharashtra Amravati Dharni Jutpani,21.51083,76.93528,22-08-15,1.6
Maharashtra Amravati Dharni Kalamkhar,21.53111,76.78306,23-08-15,0.8
Maharashtra Amravati Dharni Lawada,21.53333,77.03889,22-08-15,0.5
Maharashtra Amravati Morshi Ashtagaon,21.30833,77.92500,20-08-15,2.7
Maharashtra Amravati Morshi Chicholi,21.36000,77.94444,20-08-15,3.4
Maharashtra Amravati Morshi Dapori,21.38333,78.05972,20-08-15,9.0
Maharashtra Amravati Morshi Hiwarkheda,21.39306,78.08389,20-08-15,5.7
Maharashtra Amravati Morshi Khanapur-Vita,21.31528,77.95417,20-08-15,1.7
Maharashtra Amravati Morshi Kolwihir,21.27167,77.85139,20-08-15,1.0
Maharashtra Amravati Morshi Moorshin,21.31889,78.00222,20-08-15,1.9
Maharashtra Amravati Morshi Pala,21.38611,78.01111,20-08-15,8.7
Maharashtra Amravati Morshi Pimpri,21.36111,77.86806,20-08-15,1.2
Maharashtra Amravati Morshi Rithpur,21.24167,77.81667,20-08-15,3.0
Maharashtra Amravati Morshi Saiwada,21.33194,77.86917,20-08-15,6.2
Maharashtra Amravati Morshi Sawarkheda,21.17694,77.93750,28-08-15,5.4
Maharashtra Amravati Morshi Yavali,21.40556,78.04028,20-08-15,2.7
Maharashtra Amravati Nandgaon Kh Bellora,20.81722,77.70222,24-08-15,2.0
Maharashtra Amravati Nandgaon Kh Belora,20.76667,77.70000,24-08-15,3.0
Maharashtra Amravati Nandgaon Kh Mahuli,20.73333,77.76667,24-08-15,3.2
Maharashtra Amravati Nandgaon Kh Nandgaon Khandeshwar,20.69056,77.83639,24-08-15,2.2
August month Depth to Water Level (In mbgl) Data of Unconfined Aquifer STATE_UT DISTRICT BLOCK VILLAGE_NA LATITUDE LONGITUDE Date WL(mbgl) Maharashtra Amravati Nandgaon Kh Shivni,20.63056,77.85222,24-08-15,1.1
Maharashtra Amravati Tiwsa Anjansingi,20.91667,78.13750,24-08-15,1.4
Maharashtra Amravati Tiwsa Kurha,20.93333,78.05000,24-08-15,4.9
Maharashtra Amravati Tiwsa Mozari,21.05750,78.00389,25-08-15,10.6
Maharashtra Amravati Tiwsa Tiwsa,21.08611,78.06806,25-08-15,1.4
Maharashtra Amravati Tiwsa Warha,20.98333,78.03333,24-08-15,1.4
Maharashtra Amravati Warud Amner,21.39167,78.40139,20-08-15,14.3
Maharashtra Amravati Warud Dhanodi,21.48250,78.29972,20-08-15,4.3
Maharashtra Amravati Warud Gadegaon,21.35000,78.26250,20-08-15,9.5
Maharashtra Amravati Warud Karajgaon,21.40694,78.20222,20-08-15,1.2
Maharashtra Amravati Warud Loni,21.37639,78.19028,20-08-15,15.6
Maharashtra Amravati Warud Temburkheda,21.49722,78.23889,20-08-15,2.2
Maharashtra Amravati Warud Warud,21.46667,78.26667,19-08-15,4.5
Maharashtra Beed Ambajogai Ambajogai,18.73333,76.40000,31-08-15,4.6
Maharashtra Beed Ambajogai Dharmapuri,18.73333,76.64444,31-08-15,4.9
Maharashtra Beed Ambajogai Kanerwadi,18.83333,76.48333,31-08-15,9.5
Maharashtra Beed Ambajogai Parli,18.85000,76.53333,31-08-15,2.2
Maharashtra Beed Ambajogai Saigaon,18.66722,76.42167,31-08-15,8.3
Maharashtra Beed Ambajogai Talni,18.73333,76.51667,31-08-15,8.3
Maharashtra Beed Ambajogai Waguli,18.79472,76.19528,31-08-15,17.3
Maharashtra Beed Ashti Ashti,18.80000,75.16667,31-08-15,8.5
Maharashtra Beed Ashti Dhanora,18.95444,74.97972,31-08-15,10.1
Maharashtra Beed Ashti Doithana,18.95000,75.20000,31-08-15,7.7
Maharashtra Beed Ashti Khadkhat,18.66667,75.15000,31-08-15,11.9
Maharashtra Beed Ashti Kinhi,18.90194,75.18083,31-08-15,13.1
Maharashtra Beed Ashti Sheri Bu,18.87944,75.09056,31-08-15,13.4
Maharashtra Beed Ashti Waghluj,18.95750,74.97556,31-08-15,10.5
Maharashtra Beed Beed Jirewadi,19.02111,75.75833,31-08-15,10.0
Maharashtra Beed Beed Manjar Sumbha,18.79611,75.80889,31-08-15,8.5
Maharashtra Beed Beed Mauj,18.96667,75.88333,31-08-15,8.2
Maharashtra Beed Beed Pali,18.91528,75.74722,31-08-15,4.6
Maharashtra Beed Georai Bhend Takli,19.21667,75.92222,31-08-15,7.5
Maharashtra Beed Georai Georai,19.27472,75.73861,31-08-15,7.5
Maharashtra Beed Georai Kolegaon,19.17778,75.63194,31-08-15,7.8
Maharashtra Beed Georai Tintarvani,19.17500,75.50778,31-08-15,4.9
Maharashtra Beed Georai Umapur,19.28333,75.60000,31-08-15,10.5
Maharashtra Beed Kaij Dharur,18.79889,76.10861,31-08-15,7.7
Maharashtra Beed Kaij Kumbhephal,18.71667,76.13333,31-08-15,7.3
Maharashtra Beed Kaij Nandur Phata,18.77611,75.84639,31-08-15,9.3
Maharashtra Beed Kaij Wadwani,18.98333,76.03333,31-08-15,2.3
Maharashtra Beed Majalgaon Manjalgaon,19.15000,76.21667,31-08-15,12.3
Maharashtra Beed Majalgaon Patrud,19.10444,76.21250,31-08-15,9.3
August month Depth to Water Level (In mbgl) Data of Unconfined Aquifer STATE_UT DISTRICT BLOCK VILLAGE_NA LATITUDE LONGITUDE Date WL(mbgl) Maharashtra Beed Majalgaon Sirsala,18.98333,76.38333,31-08-15,5.3
Maharashtra Beed Majalgaon Telgaon,18.98333,76.18333,31-08-15,9.6
Maharashtra Beed Patoda Anandgaon,19.04056,75.47056,31-08-15,10.6
Maharashtra Beed Patoda Daskhed,18.76667,75.55833,31-08-15,9.5
Maharashtra Beed Patoda Dongar Kini,18.92889,75.44278,31-08-15,7.4
Maharashtra Beed Patoda Manur,19.06667,75.31667,31-08-15,18.4
Maharashtra Beed Patoda Patoda,18.86667,75.46667,31-08-15,5.7
Maharashtra Beed Patoda Pimpalwandi,18.93333,75.35833,31-08-15,7.4
Maharashtra Beed Patoda Pithi,18.93333,75.63333,31-08-15,8.1
Maharashtra Beed Patoda Sirur,19.05694,75.43111,31-08-15,12.5
Maharashtra Bhandara Bhandara Ambadi,21.12500,79.67500,22-08-15,0.8
Maharashtra Bhandara Bhandara Bhandara,21.15833,79.65417,31-08-15,2.4
Maharashtra Bhandara Bhandara Daodipar Khapa,21.10000,79.68333,22-08-15,0.7
Maharashtra Bhandara Bhandara Dhargaon,21.10639,79.73306,31-08-15,5.5
Maharashtra Bhandara Bhandara Kharbi,21.16750,79.56667,22-08-15,3.9
Maharashtra Bhandara Bhandara Pagora,21.00833,79.68583,22-08-15,1.2
Maharashtra Bhandara Bhandara Palari,21.13333,79.70833,31-08-15,0.9
Maharashtra Bhandara Bhandara Shrinagar,21.04028,79.67639,22-08-15,5.2
Maharashtra Bhandara Lakhandur Lakhandur,20.74583,79.88472,31-08-15,0.5
Maharashtra Bhandara Lakhandur Lakhandur,20.73472,79.89167,31-08-15,1.2
Maharashtra Bhandara Lakhandur Madgi,20.95000,79.80000,31-08-15,1.5
Maharashtra Bhandara Lakhandur Palandur,20.91806,79.85972,31-08-15,1.9
Maharashtra Bhandara Mohadi Dahegaon,21.28333,79.68333,31-08-15,3.4
Maharashtra Bhandara Mohadi Dahegaon,21.28333,79.68333,31-08-15,3.4
Maharashtra Bhandara Mohadi Jamb,21.38333,79.58333,31-08-15,4.1
Maharashtra Bhandara Mohadi Koka (Kokha),21.20278,79.79278,31-08-15,1.7
Maharashtra Bhandara Mohadi Tumsar Khapa,21.36667,79.71667,31-08-15,1.9
Maharashtra Bhandara Mohadi Usarra,21.39722,79.67222,31-08-15,0.9
Maharashtra Bhandara Mohadi Varti,21.23333,79.64667,31-08-15,1.2
Maharashtra Bhandara Mohadi Warthi,21.24861,79.66472,31-08-15,1.1
Maharashtra Bhandara Pauni Adyal,20.94333,79.70333,22-08-15,1.0
Maharashtra Bhandara Pauni Ajgaon,20.80000,79.71667,22-08-15,19.3
Maharashtra Bhandara Pauni Kawalewada,20.92139,79.85111,31-08-15,0.9
Maharashtra Bhandara Pauni Konda Kosara,20.87278,79.68639,22-08-15,6.8
Maharashtra Bhandara Pauni Nilaj,20.74167,79.55000,22-08-15,4.1
Maharashtra Bhandara Pauni Pauni,20.77500,79.62639,22-08-15,1.4
Maharashtra Bhandara Sakoli Jamnapur,21.10222,80.00361,31-08-15,1.1
Maharashtra Bhandara Sakoli Lakhani,21.06667,79.83333,31-08-15,1.4
Maharashtra Bhandara Sakoli Masal,20.83556,79.77333,22-08-15,1.0
Maharashtra Bhandara Sakoli Murmadi,20.97056,79.90028,31-08-15,0.3
Maharashtra Bhandara Sakoli Pitjhari,21.17917,80.00417,31-08-15,0.2
Maharashtra Bhandara Sakoli Sakoli,21.08333,79.98333,31-08-15,0.0
August month Depth to Water Level (In mbgl) Data of Unconfined Aquifer STATE_UT DISTRICT BLOCK VILLAGE_NA LATITUDE LONGITUDE Date WL(mbgl) Maharashtra Bhandara Sakoli Sakra,21.00917,79.97611,31-08-15,1.1
Maharashtra Bhandara Tumsar Chicholi,21.47083,79.71667,31-08-15,0.9
Maharashtra Bhandara Tumsar Landejhari,21.48000,79.57333,31-08-15,0.6
Maharashtra Bhandara Tumsar Paunarkhairi,21.53500,79.70472,31-08-15,0.9
Maharashtra Bhandara Tumsar Sihora,21.45833,79.84028,31-08-15,0.4
Maharashtra Buldhana Buldhana Dhad,20.40000,76.00000,30-08-15,5.0
Maharashtra Buldhana Buldhana Hatedi,20.46667,76.11111,30-08-15,2.4
Maharashtra Buldhana Buldhana Padali,20.51667,76.05000,29-08-15,2.0
Maharashtra Buldhana Buldhana Sailani,20.38333,76.08333,30-08-15,5.6
Maharashtra Buldhana Chikhli Amdapur,20.41667,76.45000,31-08-15,6.4
Maharashtra Buldhana Chikhli Chikhli,20.35222,76.25639,30-08-15,6.6
Maharashtra Buldhana Chikhli Dongaar Sheoli,20.46722,76.31500,29-08-15,4.3
Maharashtra Buldhana Chikhli Dongar Khandala,20.48750,76.29722,29-08-15,1.5
Maharashtra Buldhana Chikhli Karwand,20.45833,76.37500,30-08-15,1.0
Maharashtra Buldhana Chikhli Kelwad,20.44167,76.22917,29-08-15,2.4
Maharashtra Buldhana Chikhli Undri,20.45694,76.46389,30-08-15,6.0
Maharashtra Buldhana D. Raja Deolgaon Mahi,20.09167,76.18056,30-08-15,3.0
Maharashtra Buldhana D. Raja Deolgaon Raja,20.01667,76.03333,30-08-15,7.0
Maharashtra Buldhana D. Raja Mera Khurd,20.22472,76.27111,30-08-15,11.4
Maharashtra Buldhana D. Raja Mera Khurd,20.25000,76.26667,30-08-15,5.8
Maharashtra Buldhana D. Raja Sindkhed Raja,19.95000,76.05000,30-08-15,3.5
Maharashtra Buldhana Jalgaonjamod Jalgaonjamodnew,21.05000,76.53528,28-08-15,12.3
Maharashtra Buldhana Jalgaonjamod Jamod,21.10500,76.60417,28-08-15,11.6
Maharashtra Buldhana Jalgaonjamod Khandvi,20.97306,76.47472,28-08-15,15.0
Maharashtra Buldhana Jalgaonjamod Sungaon,21.09056,76.55694,28-08-15,9.0
Maharashtra Buldhana Khamgaon Ambe Takli,20.51833,76.67250,31-08-15,9.0
Maharashtra Buldhana Khamgaon Atali,20.55833,76.64556,31-08-15,1.6
Maharashtra Buldhana Khamgaon Garadgaon,20.66667,76.55000,30-08-15,1.8
Maharashtra Buldhana Khamgaon Godhnapur,20.67583,76.52444,29-08-15,6.5
Maharashtra Buldhana Khamgaon Lokhanda,20.55000,76.55000,30-08-15,4.3
Maharashtra Buldhana Khamgaon Nandri,20.61833,76.42889,29-08-15,13.0
Maharashtra Buldhana Khamgaon Pimpalgaon Raja,20.72444,76.43750,29-08-15,13.5
Maharashtra Buldhana Khamgaon Rohna,20.64278,76.67250,29-08-15,13.0
Maharashtra Buldhana Lonar Sultanpur,20.08750,76.53472,31-08-15,3.0
Maharashtra Buldhana Lonar Wadgaon Tejan,20.04861,76.51778,31-08-15,5.1
Maharashtra Buldhana Malkapur Datala,20.81639,76.20278,29-08-15,11.0
Maharashtra Buldhana Malkapur Waghul,20.87167,76.26667,29-08-15,9.4
Maharashtra Buldhana Mehkar Deolgaon (Sakarsha),20.43333,76.68333,31-08-15,6.0
Maharashtra Buldhana Mehkar Dongaon,20.18389,76.72194,31-08-15,13.5
Maharashtra Buldhana Mehkar Laohala,20.26667,76.41389,31-08-15,2.7
Maharashtra Buldhana Mehkar Mehkar,20.15000,76.56667,31-08-15,9.9
Maharashtra Buldhana Mehkar Naygaon,20.24306,76.57500,31-08-15,1.9
August month Depth to Water Level (In mbgl) Data of Unconfined Aquifer STATE_UT DISTRICT BLOCK VILLAGE_NA LATITUDE LONGITUDE Date WL(mbgl) Maharashtra Buldhana Mehkar Warwand,20.34722,76.63333,31-08-15,2.6
Maharashtra Buldhana Motala Dhamangaon,20.66667,76.03333,26-08-15,4.4
Maharashtra Buldhana Motala Motala,20.68333,76.20000,29-08-15,2.6
Maharashtra Buldhana Motala Motala,20.67833,76.21389,29-08-15,2.7
Maharashtra Buldhana Motala Pimpalgaon Devi,20.76667,76.02778,27-08-15,4.3
Maharashtra Buldhana Motala Rohankhed,20.62917,76.12917,26-08-15,6.4
Maharashtra Buldhana Motala Ubalkhed,20.59944,76.09667,26-08-15,7.5
Maharashtra Buldhana Nandura Dighi,20.86250,76.33667,29-08-15,17.4
Maharashtra Buldhana Nandura Tarvadi,20.73333,76.35000,29-08-15,7.6
Maharashtra Buldhana Sangrampur Paturda,20.94861,76.73194,28-08-15,10.0
Maharashtra Buldhana Sangrampur Sonalanew,21.12500,76.74167,27-08-15,25.1
Maharashtra Buldhana Sangrampur Tunki,21.10667,76.69111,28-08-15,12.8
Maharashtra Buldhana Shegaon Jalamb,20.83000,76.58333,27-08-15,7.4
Maharashtra Buldhana Shegaon Kalkheda,20.86972,76.67639,28-08-15,24.0
Maharashtra Buldhana Shegaon Kolori,20.66806,76.68056,26-08-15,7.6
Maharashtra Buldhana Shegaon Pahurjira,20.67389,76.64917,28-08-15,2.8
Maharashtra Buldhana Shegaon Shegaon,20.80000,76.70000,27-08-15,2.5
Maharashtra Buldhana Sindkhedraja Kingaon Raja,19.98611,76.24444,31-08-15,4.0
Maharashtra Buldhana Sindkhedraja Malkapur Pangra,20.07222,76.33389,31-08-15,5.5
Maharashtra Buldhana Sindkhedraja Savkhed Tejan,19.95833,76.18222,30-08-15,6.1
Maharashtra Buldhana Sindkhedraja Sendurjana,20.12806,76.38944,31-08-15,40.0
Maharashtra Chandrapur Bhadrawati Bhandak,20.10833,79.11667,30-08-15,5.0
Maharashtra Chandrapur Bhadrawati Chora,20.19917,79.23444,30-08-15,1.4
Maharashtra Chandrapur Bhadrawati Mahurli,20.18333,79.33333,27-08-15,1.2
Maharashtra Chandrapur Bhadrawati Mangli,20.16500,79.14806,30-08-15,8.9
Maharashtra Chandrapur Bhadrawati Musad Visapur,20.20333,79.17556,30-08-15,9.7
Maharashtra Chandrapur Bhadrawati Shergaon Khurd,20.29361,79.18028,30-08-15,2.4
Maharashtra Chandrapur Brahmapuri Brahmapuri,20.61667,79.86667,25-08-15,1.4
Maharashtra Chandrapur Brahmapuri Mendki,20.46667,79.83333,24-08-15,5.5
Maharashtra Chandrapur Brahmapuri Tumdi Menda,20.60250,79.80139,24-08-15,2.2
Maharashtra Chandrapur Chandrapur Agarjhari,20.10750,79.32806,27-08-15,9.7
Maharashtra Chandrapur Chandrapur Ballarsha,19.86056,79.35000,28-08-15,4.6
Maharashtra Chandrapur Chandrapur Chandrapur,19.94167,79.29444,27-08-15,3.0
Maharashtra Chandrapur Chandrapur Chichpalli,20.00278,79.48611,29-08-15,6.0
Maharashtra Chandrapur Chandrapur Ghugus,19.93333,79.10000,29-08-15,1.9
Maharashtra Chandrapur Chandrapur Kothari,19.79167,79.49167,27-08-15,5.6
Maharashtra Chandrapur Chandrapur Morwa,19.99500,79.22778,29-08-15,3.8
Maharashtra Chandrapur Chandrapur Nandegur,20.05000,79.51667,29-08-15,6.2
Maharashtra Chandrapur Chandrapur Padmapur,20.04861,79.30972,27-08-15,1.6
Maharashtra Chandrapur Chandrapur Tadali,20.03333,79.20000,29-08-15,4.1
Maharashtra Chandrapur Chimur Chimur,20.49167,79.39167,29-08-15,3.0
Maharashtra Chandrapur Chimur Jambhulghat,20.54167,79.45833,29-08-15,1.3
August month Depth to Water Level (In mbgl) Data of Unconfined Aquifer STATE_UT DISTRICT BLOCK VILLAGE_NA LATITUDE LONGITUDE Date WL(mbgl) Maharashtra Chandrapur Chimur Kawadsi,20.58333,79.49167,29-08-15,3.5
Maharashtra Chandrapur Chimur Shankarpur,20.64583,79.53333,29-08-15,1.7
Maharashtra Chandrapur Gondpipri Aksapur,19.75833,79.63333,27-08-15,4.7
Maharashtra Chandrapur Gondpipri Bhimni,19.81667,79.71667,27-08-15,1.3
Maharashtra Chandrapur Gondpipri Dabha,19.62500,79.62083,27-08-15,1.1
Maharashtra Chandrapur Gondpipri Navegaon,19.71194,79.73528,27-08-15,1.9
Maharashtra Chandrapur Gondpipri Navegaon More,19.85389,79.71667,27-08-15,3.0
Maharashtra Chandrapur Gondpipri Pombhurna,19.87222,79.63222,27-08-15,4.4
Maharashtra Chandrapur Gondpipri Watarna,19.60000,79.65000,27-08-15,0.4
Maharashtra Chandrapur Mul Mul,20.06667,79.68333,29-08-15,3.9
Maharashtra Chandrapur Mul Rajoli Tukkum,20.19167,79.69167,29-08-15,0.7
Maharashtra Chandrapur Mul Saoli,20.10000,79.75000,29-08-15,2.0
Maharashtra Chandrapur Mul Sawali,20.08333,79.78333,29-08-15,1.5
Maharashtra Chandrapur Mul Wihar Khurd,20.11667,79.88333,29-08-15,3.1
Maharashtra Chandrapur Nagbhid Balapur (Bk),20.45000,79.75000,24-08-15,1.4
Maharashtra Chandrapur Nagbhid Mohadi Mokasa,20.64583,79.65000,24-08-15,2.7
Maharashtra Chandrapur Nagbhid Nagbhid,20.58333,79.66667,24-08-15,2.1
Maharashtra Chandrapur Nagbhid Nagbhid,20.58000,79.67000,24-08-15,3.0
Maharashtra Chandrapur Nagbhid Sawargaon,20.40833,79.65833,24-08-15,5.4
Maharashtra Chandrapur Rajura Awarpur,19.77500,79.13583,28-08-15,5.0
Maharashtra Chandrapur Rajura Chandanvahi,19.74333,79.24944,28-08-15,1.4
Maharashtra Chandrapur Rajura Gadchandur,19.73583,79.17000,28-08-15,3.5
Maharashtra Chandrapur Rajura Gadegaon,19.83361,79.12417,28-08-15,1.8
Maharashtra Chandrapur Rajura Jivati,19.60889,79.06611,28-08-15,2.9
Maharashtra Chandrapur Rajura Kalmana,19.78333,79.45000,27-08-15,5.5
Maharashtra Chandrapur Rajura Korpana,19.73444,78.99556,28-08-15,2.4
Maharashtra Chandrapur Rajura Patan,19.62889,79.20000,28-08-15,2.4
Maharashtra Chandrapur Rajura Rajura,19.78583,79.37139,28-08-15,3.5
Maharashtra Chandrapur Rajura Sondo,19.66667,79.33333,28-08-15,3.2
Maharashtra Chandrapur Rajura Wansadi,19.74750,79.05222,28-08-15,3.0
Maharashtra Chandrapur Rajura Warur Road,19.69750,79.34083,28-08-15,1.8
Maharashtra Chandrapur Rajura Wirur,19.65000,79.43333,28-08-15,6.8
Maharashtra Chandrapur Sindewahi Alesur,20.37278,79.56444,29-08-15,1.3
Maharashtra Chandrapur Sindewahi Meha Bk,20.22139,79.88500,29-08-15,4.0
Maharashtra Chandrapur Sindewahi Niphandra,20.20833,79.92500,29-08-15,0.2
Maharashtra Chandrapur Sindewahi Sakhri,19.99861,79.88917,29-08-15,2.8
Maharashtra Chandrapur Sindewahi Sindewahi,20.28333,79.65000,29-08-15,0.3
Maharashtra Chandrapur Sindewahi Tambegadi Mendha,20.21111,79.79083,29-08-15,5.4
Maharashtra Chandrapur Warora Barwha,20.41972,78.95833,30-08-15,1.5
Maharashtra Chandrapur Warora Chargaon,20.38333,79.18333,29-08-15,5.3
Maharashtra Chandrapur Warora Chargaon,20.38972,79.18833,29-08-15,7.4
Maharashtra Chandrapur Warora Madheri,20.30667,78.85139,30-08-15,2.2
August month Depth to Water Level (In mbgl) Data of Unconfined Aquifer STATE_UT DISTRICT BLOCK VILLAGE_NA LATITUDE LONGITUDE Date WL(mbgl) Maharashtra Chandrapur Warora Ralegaon,20.40944,79.19639,29-08-15,1.8
Maharashtra Chandrapur Warora Rampur,20.40833,79.00000,30-08-15,2.0
Maharashtra Chandrapur Warora Salori,20.30833,79.08333,30-08-15,4.4
Maharashtra Chandrapur Warora Wahangaon,20.48361,79.23361,29-08-15,5.9
Maharashtra Chandrapur Warora Wandli,20.29722,78.88639,30-08-15,12.5
Maharashtra Chandrapur Warora Warora,20.25250,79.01222,30-08-15,1.6
Maharashtra Chhatrapati Sambhajinagar Aurangabad Aurangabad,19.88917,75.31167,31-08-15,2.3
Maharashtra Chhatrapati Sambhajinagar Aurangabad Aurangabad,19.88611,75.31500,31-08-15,6.0
Maharashtra Chhatrapati Sambhajinagar Aurangabad Aurangabad,19.88472,75.33667,31-08-15,4.4
Maharashtra Chhatrapati Sambhajinagar Aurangabad Aurangabad,19.90250,75.31250,31-08-15,8.4
Maharashtra Chhatrapati Sambhajinagar Aurangabad Aurangabad,19.89472,75.27194,31-08-15,9.0
Maharashtra Chhatrapati Sambhajinagar Aurangabad Chauka,20.01667,75.39444,31-08-15,1.0
Maharashtra Chhatrapati Sambhajinagar Aurangabad Patri,20.12500,75.46667,31-08-15,3.9
Maharashtra Chhatrapati Sambhajinagar Aurangabad Shendra,19.86833,75.47139,31-08-15,20.2
Maharashtra Chhatrapati Sambhajinagar Gangapur Dahegaon Bangla,19.73111,75.12417,31-08-15,12.9
Maharashtra Chhatrapati Sambhajinagar Gangapur Gangapur,19.69944,75.00639,31-08-15,6.0
Maharashtra Chhatrapati Sambhajinagar Gangapur Jambhala,19.95000,75.16361,31-08-15,15.0
Maharashtra Chhatrapati Sambhajinagar Kanand Devgaon,20.03472,75.03472,31-08-15,8.5
Maharashtra Chhatrapati Sambhajinagar Kanand Digar Pishore,20.29167,75.34583,31-08-15,4.6
Maharashtra Chhatrapati Sambhajinagar Kanand Hasta,20.29111,75.27194,31-08-15,7.2
Maharashtra Chhatrapati Sambhajinagar Kanand Kannad,20.26667,75.13333,31-08-15,9.0
Maharashtra Chhatrapati Sambhajinagar Kanand Kinnal,20.16667,75.06667,31-08-15,15.0
Maharashtra Chhatrapati Sambhajinagar Khultabad Khultabad,20.00417,75.19167,31-08-15,18.5
Maharashtra Chhatrapati Sambhajinagar Khultabad Walur Tanda,20.08333,75.15000,31-08-15,14.1
Maharashtra Chhatrapati Sambhajinagar Paithan Dawarwadi,19.53194,75.50667,31-08-15,16.3
Maharashtra Chhatrapati Sambhajinagar Paithan Taherpur,19.65111,75.33528,31-08-15,8.5
Maharashtra Chhatrapati Sambhajinagar Sillod Ajanta,20.54167,75.74167,31-08-15,2.1
Maharashtra Chhatrapati Sambhajinagar Sillod Golegaon Budruk,20.45639,75.71000,31-08-15,6.5
Maharashtra Chhatrapati Sambhajinagar Sillod Kaigaon,20.16667,75.63333,31-08-15,7.2
Maharashtra Chhatrapati Sambhajinagar Vaijapur Garaj,20.05639,74.89444,31-08-15,13.8
Maharashtra Chhatrapati Sambhajinagar Vaijapur Rotegaon,19.91667,74.75000,31-08-15,11.4
Maharashtra Chhatrapati Sambhajinagar Vaijapur Tunki,20.13333,74.85000,31-08-15,14.7
Maharashtra Chhatrapati Sambhajinagar Vaijapur Vaijapur,19.93167,74.71056,31-08-15,12.5
Maharashtra Chhatrapati Sambhajinagar Vaijapur Waghalgaon,19.84750,74.83111,31-08-15,12.0
Maharashtra Dharashiv Bhoom Bhoom,18.45667,75.66167,31-08-15,12.7
Maharashtra Dharashiv Bhoom It,18.61472,75.59611,31-08-15,11.0
Maharashtra Dharashiv Bhoom Pathrud,18.55833,75.53889,31-08-15,10.0
Maharashtra Dharashiv Bhoom Washi,18.55694,75.78611,28-08-15,10.3
Maharashtra Dharashiv Kalamb Govindpur,18.45556,76.09139,31-08-15,6.7
Maharashtra Dharashiv Kalamb Kalamb,18.56667,76.01667,31-08-15,6.3
Maharashtra Dharashiv Kalamb Massa (Khurd),18.48333,75.93333,31-08-15,6.3
Maharashtra Dharashiv Kalamb Shiradhon,18.51444,76.18056,31-08-15,4.7
August month Depth to Water Level (In mbgl) Data of Unconfined Aquifer STATE_UT DISTRICT BLOCK VILLAGE_NA LATITUDE LONGITUDE Date WL(mbgl) Maharashtra Dharashiv Kalamb Yermala,18.39000,75.87083,31-08-15,30.0
Maharashtra Dharashiv Omerga Babhalsur,17.95056,76.60306,27-08-15,16.4
Maharashtra Dharashiv Omerga Lohara Buzurg,17.99167,76.33056,27-08-15,3.2
Maharashtra Dharashiv Omerga Makni,18.00472,76.43361,27-08-15,7.0
Maharashtra Dharashiv Omerga Pethsangavi,17.98389,76.55333,27-08-15,12.4
Maharashtra Dharashiv Omerga Turori,17.83333,76.68333,27-08-15,5.4
Maharashtra Dharashiv Omerga Umerga,17.84139,76.62333,27-08-15,6.3
Maharashtra Dharashiv Osmanabad Dhoki,18.37389,76.10278,31-08-15,11.5
Maharashtra Dharashiv Osmanabad Dhorala,18.39889,76.16528,28-08-15,16.8
Maharashtra Dharashiv Osmanabad Karajkheda,18.04528,76.27472,28-08-15,11.6
Maharashtra Dharashiv Osmanabad Khanapur-Vita,18.18444,75.98444,28-08-15,7.2
Maharashtra Dharashiv Osmanabad Osmanabad,18.18000,76.04528,28-08-15,8.7
Maharashtra Dharashiv Osmanabad Sancha,18.20000,76.08333,28-08-15,8.2
Maharashtra Dharashiv Osmanabad Takiwiki,18.03333,76.21667,28-08-15,10.5
Maharashtra Dharashiv Osmanabad Ter,18.32417,76.13639,28-08-15,8.4
Maharashtra Dharashiv Osmanabad Vadgaon Siddheswar,18.12083,76.08056,28-08-15,7.0
Maharashtra Dharashiv Paranda Anala,18.43333,75.41667,31-08-15,10.0
Maharashtra Dharashiv Paranda Paranda,18.27361,75.42583,28-08-15,11.5
Maharashtra Dharashiv Paranda Pimpalwandi,18.21667,75.53333,31-08-15,10.0
Maharashtra Dharashiv Paranda Sonari,18.37083,75.42500,31-08-15,8.0
Maharashtra Dharashiv Tuljapur Andur,17.83250,76.24306,28-08-15,6.6
Maharashtra Dharashiv Tuljapur Gandora,17.91667,76.21667,28-08-15,12.5
Maharashtra Dharashiv Tuljapur Jalkot,17.82361,76.33361,27-08-15,7.8
Maharashtra Dharashiv Tuljapur Mouje Barul,17.97500,76.15972,28-08-15,9.2
Maharashtra Dharashiv Tuljapur Sarola,17.96528,76.04833,28-08-15,4.7
Maharashtra Dharashiv Tuljapur Savargaon,17.88972,75.97083,28-08-15,9.0
Maharashtra Dharashiv Tuljapur Tuljapur,18.01611,76.08833,28-08-15,8.9
Maharashtra Dhule Dhule Ajnale,20.82500,74.60000,25-08-15,3.2
Maharashtra Dhule Dhule Avdhan,20.85000,74.78333,25-08-15,6.3
Maharashtra Dhule Dhule Borkund,20.71806,74.83111,25-08-15,2.7
Maharashtra Dhule Dhule Dhule,20.90417,74.76667,23-08-15,6.6
Maharashtra Dhule Dhule Kherde,20.91667,74.63333,25-08-15,10.2
Maharashtra Dhule Dhule Kusumba,20.90750,74.59833,22-08-15,8.4
Maharashtra Dhule Dhule Laling,20.82083,74.74583,23-08-15,7.5
Maharashtra Dhule Dhule Mukti,20.88333,74.95000,25-08-15,6.1
Maharashtra Dhule Dhule Nangaon,20.96667,74.77500,25-08-15,3.7
Maharashtra Dhule Dhule Narwhal,20.82500,74.81667,25-08-15,2.7
Maharashtra Dhule Dhule Ner,20.93611,74.51472,24-08-15,9.3
Maharashtra Dhule Dhule Phagne,20.89000,74.83806,25-08-15,5.1
Maharashtra Dhule Dhule Purmepada(Pur),20.72833,74.70000,25-08-15,5.0
Maharashtra Dhule Sakri Burdi Pada,20.95000,73.96667,24-08-15,2.7
Maharashtra Dhule Sakri Chadwel,21.21667,74.23333,24-08-15,6.2
August month Depth to Water Level (In mbgl) Data of Unconfined Aquifer STATE_UT DISTRICT BLOCK VILLAGE_NA LATITUDE LONGITUDE Date WL(mbgl) Maharashtra Dhule Sakri Charanmal,21.00417,73.85611,24-08-15,1.6
Maharashtra Dhule Sakri Dahival,21.06667,74.16389,24-08-15,9.0
Maharashtra Dhule Sakri Dusane,21.14611,74.42194,25-08-15,4.5
Maharashtra Dhule Sakri Ichhapur,20.97222,74.44444,24-08-15,7.8
Maharashtra Dhule Sakri Nizampur,21.10000,74.33028,24-08-15,4.8
Maharashtra Dhule Sakri Pimpalner,20.95000,74.12500,24-08-15,4.3
Maharashtra Dhule Sakri Sakri,20.98333,74.31667,23-08-15,8.1
Maharashtra Dhule Shindkhede Chimthane,21.18333,74.68333,25-08-15,8.8
Maharashtra Dhule Shindkhede Dangurne,21.10639,74.72972,25-08-15,7.4
Maharashtra Dhule Shindkhede Dondaicha,21.32361,74.57333,25-08-15,9.3
Maharashtra Dhule Shindkhede Methi,21.24583,74.63750,25-08-15,10.6
Maharashtra Dhule Shindkhede Nardana,21.21667,74.81667,25-08-15,6.8
Maharashtra Dhule Shindkhede Shewade,21.15639,74.59250,25-08-15,7.6
Maharashtra Dhule Shindkhede Sindkheda,21.27083,74.74583,25-08-15,17.0
Maharashtra Dhule Shirpur Boradi,21.52083,74.90000,22-08-15,9.0
Maharashtra Dhule Shirpur Hadakhed,21.42389,74.98139,22-08-15,4.0
Maharashtra Dhule Shirpur Hisala,21.26667,75.10889,22-08-15,19.0
Maharashtra Dhule Shirpur Palasner,21.52500,75.04722,22-08-15,4.3
Maharashtra Dhule Shirpur Samaryapada,21.46056,74.89972,28-08-15,6.2
Maharashtra Dhule Shirpur Sangivi,21.48333,74.98333,22-08-15,3.5
Maharashtra Dhule Shirpur Saver,21.29611,75.01694,22-08-15,7.5
Maharashtra Gadchiroli Aheri Allapalli,19.43333,80.06667,25-08-15,4.9
Maharashtra Gadchiroli Aheri Elchil,19.51528,80.15722,26-08-15,2.0
Maharashtra Gadchiroli Aheri Govindgaon,19.10583,80.12028,26-08-15,3.7
Maharashtra Gadchiroli Aheri Nandigaon,19.30000,80.03333,25-08-15,6.0
Maharashtra Gadchiroli Aheri Repanpalli,19.16667,80.15000,26-08-15,9.3
Maharashtra Gadchiroli Aheri Timiram,19.28333,80.08333,26-08-15,5.6
Maharashtra Gadchiroli Aheri Umanur,19.05000,80.06667,26-08-15,8.2
Maharashtra Gadchiroli Aheri Yelgur Tola,19.53333,80.06667,25-08-15,5.2
Maharashtra Gadchiroli Armori Armori,20.46667,79.98333,24-08-15,1.9
Maharashtra Gadchiroli Armori Delanwadi,20.43333,80.18333,24-08-15,0.6
Maharashtra Gadchiroli Armori Khondala,20.57500,79.97083,25-08-15,1.4
Maharashtra Gadchiroli Armori Shankarpur,20.62722,80.04056,24-08-15,2.7
Maharashtra Gadchiroli Armori Vihirgaon Kukdi,20.65222,80.16806,25-08-15,4.2
Maharashtra Gadchiroli Armori Wadsa,20.61667,79.96667,25-08-15,1.1
Maharashtra Gadchiroli Armori Wairagarh,20.43333,80.09167,24-08-15,2.3
Maharashtra Gadchiroli Chamorshi Ashti,19.68333,79.79167,27-08-15,0.8
Maharashtra Gadchiroli Chamorshi Bori,19.50000,79.95000,27-08-15,0.9
Maharashtra Gadchiroli Chamorshi Chamorshi,19.93333,79.88333,25-08-15,0.8
Maharashtra Gadchiroli Chamorshi Chaudampalli,19.60000,79.85000,27-08-15,1.0
Maharashtra Gadchiroli Chamorshi Chaurampalli,19.60333,79.85167,27-08-15,4.9
Maharashtra Gadchiroli Chamorshi Ghot,19.79167,79.98333,25-08-15,6.1
August month Depth to Water Level (In mbgl) Data of Unconfined Aquifer STATE_UT DISTRICT BLOCK VILLAGE_NA LATITUDE LONGITUDE Date WL(mbgl) Maharashtra Gadchiroli Chamorshi Konsari,19.76389,79.81444,27-08-15,0.7
Maharashtra Gadchiroli Chamorshi Lagam,19.54167,79.90000,27-08-15,6.8
Maharashtra Gadchiroli Chamorshi Mulchera,19.68194,79.99722,25-08-15,3.9
Maharashtra Gadchiroli Chamorshi Talodhi Rampur,19.98333,79.96667,25-08-15,2.6
Maharashtra Gadchiroli Dhanora Chatgaon,20.20833,80.17500,25-08-15,3.9
Maharashtra Gadchiroli Dhanora Dhanora,20.26667,80.30000,25-08-15,2.5
Maharashtra Gadchiroli Dhanora Rangi,20.34722,80.18194,25-08-15,3.9
Maharashtra Gadchiroli Etapalli Itapalli,19.60000,80.23333,26-08-15,5.9
Maharashtra Gadchiroli Gadchiroli Gadchiroli,20.18333,80.00833,25-08-15,2.0
Maharashtra Gadchiroli Gadchiroli Govindpur,20.06528,80.00139,25-08-15,3.1
Maharashtra Gadchiroli Gadchiroli Maregaon,20.30583,80.13167,25-08-15,3.7
Maharashtra Gadchiroli Gadchiroli Porla,20.30833,79.98333,25-08-15,5.7
Maharashtra Gadchiroli Kurkheda Chandona Tola,20.55000,80.26667,24-08-15,2.0
Maharashtra Gadchiroli Kurkheda Gowardha,20.62639,80.15000,24-08-15,2.3
Maharashtra Gadchiroli Kurkheda Kurkhera,20.61667,80.20833,24-08-15,1.0
Maharashtra Gadchiroli Kurkheda Sonsari,20.52083,80.23333,24-08-15,2.8
Maharashtra Gadchiroli Kurkheda Uradi,20.61944,80.20833,24-08-15,2.1
Maharashtra Gadchiroli Sironcha Bamni,18.95000,79.98333,26-08-15,2.9
Maharashtra Gadchiroli Sironcha Sironcha,18.85111,79.95889,26-08-15,11.4
Maharashtra Gondia Amgaon Amgaon,21.37500,80.38333,31-08-15,0.3
Maharashtra Gondia Amgaon Dahegaon,21.37389,80.28194,31-08-15,0.1
Maharashtra Gondia Amgaon Kalimati,21.46333,80.36528,31-08-15,1.1
Maharashtra Gondia Arjuni Morgaon Arjuni,20.82222,80.02222,31-08-15,0.6
Maharashtra Gondia Arjuni Morgaon Bondgaon,20.89028,79.99861,31-08-15,0.6
Maharashtra Gondia Arjuni Morgaon Dawwa,21.17556,80.17611,31-08-15,3.5
Maharashtra Gondia Arjuni Morgaon Kohemara,21.06667,80.15000,31-08-15,3.5
Maharashtra Gondia Arjuni Morgaon Navegaon,20.91667,80.08333,31-08-15,1.2
Maharashtra Gondia Arjuni Morgaon Salebardi,20.90972,79.94028,31-08-15,4.0
Maharashtra Gondia Arjuni Morgaon Sangadi,20.95000,79.98333,31-08-15,1.4
Maharashtra Gondia Deori Deori,21.07583,80.36667,31-08-15,1.0
Maharashtra Gondia Deori Dongargaon,21.06667,80.25000,31-08-15,3.3
Maharashtra Gondia Deori Dongargaon,21.07583,80.25000,31-08-15,5.6
Maharashtra Gondia Deori Sindbiri,20.95000,80.38333,31-08-15,1.8
Maharashtra Gondia Deori Sondad,21.07500,80.09167,31-08-15,1.7
Maharashtra Gondia Deori Wadegaon,21.14333,80.37889,31-08-15,0.5
Maharashtra Gondia Gondia Asoli,21.48333,80.26667,31-08-15,1.6
Maharashtra Gondia Gondia Datora,21.45000,80.25000,31-08-15,1.9
Maharashtra Gondia Gondia Khamari,21.41889,80.23694,31-08-15,1.5
Maharashtra Gondia Gondia Kudwa,21.48056,80.18167,31-08-15,2.9
