Location_Info,Latitude,Longitude,Date,WL(mbgl)
January month Depth to Water Level (In mbgl) Data of Unconfined Aquifer STATE_UT DISTRICT BLOCK VILLAGE LATITUDE LONGITUDE Date WL(mbgl) Rajasthan Alwar Thanagazi Bairawas,27.46110,76.39890,01-01-20,21.0
Rajasthan Alwar Thanagazi Kundal,27.20360,76.28610,01-01-20,27.6
Rajasthan Anupgarh Anupgarh Anupgarh,29.19060,73.21890,01-01-20,15.6
Rajasthan Anupgarh Anupgarh Banda Colony,29.30830,73.22920,01-01-20,9.6
Rajasthan Anupgarh Anupgarh Gomanwali,29.03330,73.43330,01-01-20,6.3
Rajasthan Anupgarh Anupgarh Jaitsar,29.33610,73.68750,01-01-20,7.2
Rajasthan Anupgarh Anupgarh Khal,29.08330,73.36670,01-01-20,8.2
Rajasthan Anupgarh Anupgarh Ramsinghpura,29.16670,73.37500,01-01-20,14.7
Rajasthan Anupgarh Vijainagar Jaitsar,29.34720,73.66250,01-01-20,7.4
Rajasthan Balotra Balotra Balotra,25.83750,72.20560,01-01-20,33.9
Rajasthan Balotra Balotra Doli,26.06670,72.66670,01-01-20,4.3
Rajasthan Balotra Balotra Paralia Dhamat,26.21610,72.62600,01-01-20,11.0
Rajasthan Balotra Balotra Thob,26.05000,72.35830,01-01-20,15.6
Rajasthan Balotra Balotra Thoombli,26.20360,72.48860,01-01-20,22.8
Rajasthan Balotra Gira Santara,25.99750,71.96750,01-01-20,4.6
Rajasthan Balotra Gira Saupadamsingh,26.15030,71.80670,01-01-20,22.6
Rajasthan Balotra Samdari Karmawas,25.78060,72.58750,01-01-20,4.1
Rajasthan Balotra Sindhari Arniyali,25.46670,71.96750,01-01-20,39.0
Rajasthan Balotra Sindhari Sindari,25.56670,71.90000,01-01-20,15.7
Rajasthan Banswara Arthuna Arthuna,23.49580,74.10000,01-01-20,4.5
Rajasthan Banswara Arthuna Arthuna,23.50000,74.10000,01-01-20,4.9
Rajasthan Banswara Arthuna Borigoan,23.57500,74.11670,01-01-20,2.9
Rajasthan Banswara Arthuna Kotra,23.45440,74.07500,01-01-20,4.5
Rajasthan Banswara Arthuna Raiyana,23.51470,74.17000,01-01-20,4.0
Rajasthan Banswara Bagidora Bansla,23.42110,74.29190,01-01-20,5.4
Rajasthan Banswara Bagidora Barodiya,23.41670,74.35030,01-01-20,2.4
Rajasthan Banswara Bagidora Rakho,23.36830,74.27920,01-01-20,1.4
Rajasthan Banswara Banswara Banswara,23.53330,74.45000,01-01-20,5.7
Rajasthan Banswara Banswara Borwat,23.50920,74.38440,01-01-20,2.3
Rajasthan Banswara Banswara Chiriyawasa,23.50920,74.37750,01-01-20,1.4
Rajasthan Banswara Banswara Khera Dahar,23.61670,74.50830,01-01-20,1.6
Rajasthan Banswara Banswara Padla Barora,23.53610,74.51940,01-01-20,5.0
Rajasthan Banswara Banswara Surwania,23.44170,74.36890,01-01-20,1.3
Rajasthan Banswara Chhoti Sarwan Bagtalav,23.55030,74.68580,01-01-20,5.1
Rajasthan Banswara Chhoti Sarwan Danakshari,23.55750,74.60110,01-01-20,4.3
Rajasthan Banswara Chhoti Sarwan Danpur,23.51670,74.71670,01-01-20,6.0
Rajasthan Banswara Chhoti Sarwan Katumbi,23.53610,74.61670,01-01-20,4.7
Rajasthan Banswara Garhi Bhimpur,23.71530,74.26280,01-01-20,6.2
January month Depth to Water Level (In mbgl) Data of Unconfined Aquifer STATE_UT DISTRICT BLOCK VILLAGE LATITUDE LONGITUDE Date WL(mbgl) Rajasthan Banswara Garhi Garhi Partapura,23.59000,74.17500,01-01-20,1.9
Rajasthan Banswara Garhi Wajwana,23.61670,74.28330,01-01-20,5.1
Rajasthan Banswara Ghatol Bhoongra,23.66860,74.50560,01-01-20,6.1
Rajasthan Banswara Ghatol Dungaria,23.86390,74.45830,01-01-20,7.6
Rajasthan Banswara Ghatol Ganora,23.76670,74.25280,01-01-20,0.0
Rajasthan Banswara Ghatol Narwali,23.89440,74.44310,01-01-20,3.9
Rajasthan Banswara Ghatol Sadri,23.78330,74.48440,01-01-20,3.0
Rajasthan Banswara Ghatol Senwasa,23.65610,74.38970,01-01-20,3.4
Rajasthan Banswara Kushalgarh Charakni,23.31280,74.37970,01-01-20,5.9
Rajasthan Banswara Kushalgarh Chhoti Sarwa,23.21970,74.58330,01-01-20,11.5
Rajasthan Banswara Kushalgarh Kusalgarh,23.20000,74.45000,01-01-20,2.2
Rajasthan Banswara Kushalgarh Kusalgarh,23.20000,74.45190,01-01-20,4.3
Rajasthan Banswara Kushalgarh Saran,23.26440,74.43190,01-01-20,2.2
Rajasthan Banswara Sajjangarh Bhura Kua,23.22500,74.31000,01-01-20,2.3
Rajasthan Banswara Sajjangarh Bilari,23.32690,74.36170,01-01-20,5.0
Rajasthan Banswara Sajjangarh Chhinch,23.30000,74.31670,01-01-20,0.4
Rajasthan Banswara Sajjangarh Chota Dungra,23.17220,74.29030,01-01-20,4.1
Rajasthan Banswara Talwara Sera Pada Sandoh,23.48330,74.36670,01-01-20,1.1
Rajasthan Baran Anta Anta,25.15830,76.30000,01-01-20,2.7
Rajasthan Baran Anta Bohat,25.25280,76.50420,01-01-20,6.8
Rajasthan Baran Anta Mangrol,25.32500,76.51250,01-01-20,3.9
Rajasthan Baran Anta Udpuria,25.30030,76.32920,01-01-20,3.3
Rajasthan Baran Atru Atru,24.85750,76.66110,01-01-20,2.4
Rajasthan Baran Atru Kanwai,24.74830,76.74170,01-01-20,4.8
Rajasthan Baran Baran (Full) Bamla,24.99170,76.47500,01-01-20,3.3
Rajasthan Baran Baran (Full) Baran,25.10000,76.52000,01-01-20,2.0
Rajasthan Baran Chhipabarod Chhipa Barod,24.59420,76.73220,01-01-20,7.4
Rajasthan Baran Chhipabarod Harnauda,24.43610,76.70000,01-01-20,5.3
Rajasthan Baran Chhipabarod Sarthal,24.48330,76.60000,01-01-20,2.6
Rajasthan Baran Kishanganj Bhanwargarh,25.09140,76.79360,01-01-20,1.2
Rajasthan Baran Kishanganj Kishanganj,25.10830,76.65000,01-01-20,3.2
Rajasthan Baran Shahbad Kasba Thana,25.20830,77.35830,01-01-20,5.9
Rajasthan Baran Shahbad Kelwara,25.13330,76.90000,01-01-20,3.3
Rajasthan Baran Shahbad Mamoni,25.18780,77.10560,01-01-20,4.5
Rajasthan Baran Shahbad Pajal Tori,25.26330,77.26330,01-01-20,4.2
Rajasthan Baran Shahbad Shahabad,25.25000,77.13330,01-01-20,3.5
Rajasthan Barmer Barmer Barmer,25.73610,71.39720,01-01-20,15.7
Rajasthan Barmer Barmer Bhachbhar,25.72140,70.97860,01-01-20,21.4
January month Depth to Water Level (In mbgl) Data of Unconfined Aquifer STATE_UT DISTRICT BLOCK VILLAGE LATITUDE LONGITUDE Date WL(mbgl) Rajasthan Barmer Barmer Bisala,25.88750,71.24170,01-01-20,14.5
Rajasthan Barmer Barmer Chawa,25.74580,71.66280,01-01-20,49.3
Rajasthan Barmer Barmer Derasar,25.77610,71.16330,01-01-20,15.2
Rajasthan Barmer Barmer Jasai,25.68250,71.21080,01-01-20,18.4
Rajasthan Barmer Barmer Nand,25.97170,71.14500,01-01-20,12.4
Rajasthan Barmer Barmer Nimri (Radewa),25.60330,71.28330,01-01-20,10.9
Rajasthan Barmer Barmer Rawatsar,25.68360,71.62080,01-01-20,63.6
Rajasthan Barmer Barmer Sanawara,25.47970,71.40000,01-01-20,45.4
Rajasthan Barmer Barmer Sanlor,25.58580,71.23330,01-01-20,27.6
Rajasthan Barmer Barmer Sansiyan,25.70420,71.41250,01-01-20,20.9
Rajasthan Barmer Barmer Sihani,25.58580,71.23330,01-01-20,14.5
Rajasthan Barmer Barmer Sutharon Ki Dhani,25.80830,71.03890,01-01-20,11.4
Rajasthan Barmer Baytoo Baitu,25.86000,71.75420,01-01-20,32.3
Rajasthan Barmer Baytoo Bhadka,25.88330,71.35000,01-01-20,84.9
Rajasthan Barmer Baytoo Bhotia,25.90000,71.35000,01-01-20,79.2
Rajasthan Barmer Baytoo Chitar Ka Par,25.89500,71.56030,01-01-20,29.2
Rajasthan Barmer Baytoo Jhak,26.16080,71.57500,01-01-20,56.8
Rajasthan Barmer Baytoo Matasar,25.79170,71.57920,01-01-20,34.2
Rajasthan Barmer Baytoo Panavada,25.99390,71.75690,01-01-20,28.7
Rajasthan Barmer Chohtan Chauhtan_Dw,25.47500,71.07500,01-01-20,48.2
Rajasthan Barmer Chohtan Dhanau,25.23940,71.10190,01-01-20,58.9
Rajasthan Barmer Chohtan Sata,24.82000,71.15830,01-01-20,6.8
Rajasthan Barmer Chohtan Siyaga Tala,25.33750,70.86530,01-01-20,64.6
Rajasthan Barmer Chohtan Tarla,24.83610,71.21670,01-01-20,3.8
Rajasthan Barmer Dhorimanna Katerla,25.15830,71.45000,01-01-20,15.6
Rajasthan Barmer Dhorimanna Piparli Gaon,25.12220,71.58890,01-01-20,7.4
Rajasthan Barmer Gadra Road Balewa,25.91530,70.87500,01-01-20,20.9
Rajasthan Barmer Gadra Road Gadra Road,25.74030,70.63890,01-01-20,99.3
Rajasthan Barmer Gadra Road Jansingh Ki Beri,26.01810,70.82720,01-01-20,8.7
Rajasthan Barmer Gadra Road Kharin,25.91220,70.46530,01-01-20,46.0
Rajasthan Barmer Gadra Road Redana,25.84580,70.98970,01-01-20,18.5
Rajasthan Barmer Sheo Gujro Ka Bera,26.33830,71.55560,01-01-20,89.1
Rajasthan Barmer Sheo Kashmir,26.25970,71.60560,01-01-20,63.5
Rajasthan Beawar Jaitaran Bassi,26.32940,74.06310,01-01-20,9.8
Rajasthan Beawar Jaitaran Nimaj,26.15000,74.01830,01-01-20,37.4
Rajasthan Beawar Jaitaran Prithipura,26.20000,73.81670,01-01-20,21.3
Rajasthan Beawar Jawaja Baglias,25.90830,74.20000,01-01-20,3.4
Rajasthan Beawar Jawaja Jawaja,25.93330,74.20000,01-01-20,2.4
January month Depth to Water Level (In mbgl) Data of Unconfined Aquifer STATE_UT DISTRICT BLOCK VILLAGE LATITUDE LONGITUDE Date WL(mbgl) Rajasthan Beawar Jawaja Maidayabadaya,26.12000,74.37000,01-01-20,1.7
Rajasthan Beawar Jawaja Narbadkhera,26.05000,74.28330,01-01-20,5.8
Rajasthan Beawar Jawaja Pakhriawas,26.08810,74.39920,01-01-20,6.2
Rajasthan Beawar Masooda Andheri Devi,26.07830,74.37610,01-01-20,2.8
Rajasthan Beawar Masooda Ludiyana,25.99720,74.58330,01-01-20,7.9
Rajasthan Beawar Masooda Masuda,26.09170,74.51250,01-01-20,2.7
Rajasthan Beawar Masooda Ramgarh,25.96670,74.46420,01-01-20,24.8
Rajasthan Beawar Raipur Hajiwas,26.13330,74.10080,01-01-20,3.4
Rajasthan Beawar Raipur Haripur Rly Stn,26.01470,74.02890,01-01-20,5.9
Rajasthan Bharatpur Bayana Bandh Bareta,26.90440,77.37610,01-01-20,3.2
Rajasthan Bharatpur Bayana Bawari Baroda,26.96390,77.39000,01-01-20,6.7
Rajasthan Bharatpur Bayana Bhagori_Dw,26.97220,77.25140,01-01-20,12.7
Rajasthan Bharatpur Bayana Jaisora,26.76810,77.43110,01-01-20,8.0
Rajasthan Bharatpur Bayana Kheria Mod,26.95000,77.38330,01-01-20,4.5
Rajasthan Bharatpur Bayana Kot,26.80420,77.43060,01-01-20,9.0
Rajasthan Bharatpur Nadbai Baonli Chan,27.22500,77.09170,01-01-20,35.0
Rajasthan Bharatpur Nadbai Nadbai,27.20830,77.21250,01-01-20,18.0
Rajasthan Bharatpur Rupbas Dahinagaon,26.99580,77.49170,01-01-20,11.6
Rajasthan Bharatpur Rupbas Khanua,27.03330,77.55000,01-01-20,10.3
Rajasthan Bharatpur Sewar Bharatpur,27.21670,77.50000,01-01-20,0.7
Rajasthan Bharatpur Sewar Ludhawai_Gwd,27.17500,77.39500,01-01-20,6.2
Rajasthan Bharatpur Weir Chokarwada,27.11670,77.06670,01-01-20,54.3
Rajasthan Bharatpur Weir Newada Deep,27.14830,77.07610,01-01-20,27.7
Rajasthan Bharatpur Weir Newada Shallow,27.14830,77.07640,01-01-20,26.9
Rajasthan Bharatpur Weir Weir,27.01390,77.17500,01-01-20,25.1
Rajasthan Bhilwara Asind Badnor,25.83330,74.28330,01-01-20,3.1
Rajasthan Bhilwara Asind Barasni,25.75830,74.46670,01-01-20,1.4
Rajasthan Bhilwara Asind Daulatgarh,25.63330,74.32000,01-01-20,1.5
Rajasthan Bhilwara Asind Dholi,25.68070,74.45770,01-01-20,6.8
Rajasthan Bhilwara Asind Jeewaliya,25.54440,74.50750,01-01-20,3.0
Rajasthan Bhilwara Asind Parasoli,25.77990,74.36090,01-01-20,5.8
Rajasthan Bhilwara Asind Rooppura,25.80400,74.45340,01-01-20,9.7
Rajasthan Bhilwara Asind Tiloli,25.59750,74.31330,01-01-20,0.1
Rajasthan Bhilwara Banera Babrana,25.47210,74.71840,01-01-20,1.6
Rajasthan Bhilwara Banera Baneramataji,25.48750,74.66500,01-01-20,5.4
Rajasthan Bhilwara Banera Raila Road,25.63330,74.60000,01-01-20,4.2
Rajasthan Bhilwara Bijoliya Bijolia,25.17000,75.32280,01-01-20,3.8
Rajasthan Bhilwara Bijoliya Mangtala,25.34750,75.29750,01-01-20,13.3
January month Depth to Water Level (In mbgl) Data of Unconfined Aquifer STATE_UT DISTRICT BLOCK VILLAGE LATITUDE LONGITUDE Date WL(mbgl) Rajasthan Bhilwara Bijoliya Paparbar,25.06450,75.29520,01-01-20,0.6
Rajasthan Bhilwara Bijoliya Rampuriya,25.29350,75.32880,01-01-20,10.6
Rajasthan Bhilwara Bijoliya Salawatia,25.11390,75.26110,01-01-20,21.5
Rajasthan Bhilwara Bijoliya Soonthi,25.19890,75.42530,01-01-20,13.1
Rajasthan Bhilwara Hurda Gageda,25.86670,74.55000,01-01-20,3.6
Rajasthan Bhilwara Hurda Gulabpura,25.90000,74.67000,01-01-20,0.6
Rajasthan Bhilwara Hurda Phalamada,25.77540,74.51330,01-01-20,2.7
Rajasthan Bhilwara Hurda Sanodiya,25.72340,74.62590,01-01-20,2.4
Rajasthan Bhilwara Kotri Bhagwanpura,25.46920,75.05500,01-01-20,5.9
Rajasthan Bhilwara Kotri Paroli,25.51780,75.09170,01-01-20,1.7
Rajasthan Bhilwara Kotri Ramnagar,25.28440,75.00180,01-01-20,7.3
Rajasthan Bhilwara Kotri Sawaipur,25.30690,74.86670,01-01-20,6.2
Rajasthan Bhilwara Kotri Swaipur,25.31170,74.86590,01-01-20,4.5
Rajasthan Bhilwara Mandal Bakli,25.44980,74.36560,01-01-20,6.8
Rajasthan Bhilwara Mandal Dahimatha,25.52780,74.30080,01-01-20,6.8
Rajasthan Bhilwara Mandal Karera,25.51500,74.26670,01-01-20,15.0
Rajasthan Bhilwara Mandal Malas,25.52380,74.32430,01-01-20,11.4
Rajasthan Bhilwara Mandal Shivpur,25.69310,74.12690,01-01-20,7.5
Rajasthan Bhilwara Mandalgarh Bigod,25.24440,75.02970,01-01-20,1.3
Rajasthan Bhilwara Mandalgarh Ladpura,25.15420,75.12140,01-01-20,4.0
Rajasthan Bhilwara Mandalgarh Mandalgarh,25.18330,75.09390,01-01-20,4.8
Rajasthan Bhilwara Mandalgarh Mandalgarh,25.21370,75.06030,01-01-20,7.4
Rajasthan Bhilwara Mandalgarh Suras,25.19940,74.93750,01-01-20,50.5
Rajasthan Bhilwara Raipur Dangri,25.26090,74.04870,01-01-20,9.6
Rajasthan Bhilwara Raipur Devaria,25.28330,74.15830,01-01-20,9.8
Rajasthan Bhilwara Raipur Nangpura,25.45420,74.18750,01-01-20,19.9
Rajasthan Bhilwara Raipur Pitakhera,25.38500,74.10830,01-01-20,7.2
Rajasthan Bhilwara Raipur Raipur,25.40360,74.16110,01-01-20,1.8
Rajasthan Bhilwara Raipur Thala,25.44340,74.20440,01-01-20,5.4
Rajasthan Bhilwara Sahara Galodiya,25.19530,74.29420,01-01-20,8.5
Rajasthan Bhilwara Sahara Gangapur,25.21670,74.25970,01-01-20,4.4
Rajasthan Bhilwara Sahara Koshithal,25.30770,74.18200,01-01-20,1.8
Rajasthan Bhilwara Sahara Mahendragarh,25.26140,74.36760,01-01-20,6.2
Rajasthan Bhilwara Sahara Potlan,25.13680,74.21740,01-01-20,1.9
Rajasthan Bhilwara Sahara Salera,25.20400,74.15570,01-01-20,5.3
Rajasthan Bhilwara Suwana Hamirgarh,25.18060,74.63000,01-01-20,8.1
Rajasthan Bhilwara Suwana Karoi Kalan,25.22280,74.42510,01-01-20,4.2
Rajasthan Bhilwara Suwana Kodukota,25.37060,74.77500,01-01-20,2.4
January month Depth to Water Level (In mbgl) Data of Unconfined Aquifer STATE_UT DISTRICT BLOCK VILLAGE LATITUDE LONGITUDE Date WL(mbgl) Rajasthan Bhilwara Suwana Mandapia Rs,25.26940,74.63750,01-01-20,5.6
Rajasthan Bhilwara Suwana Sethoriya,25.19210,74.43600,01-01-20,11.2
Rajasthan Bhilwara Suwana Suwana,25.35000,74.70000,01-01-20,3.6
Rajasthan Bikaner Bikaner 6 Pb,28.66940,72.75000,01-01-20,16.8
Rajasthan Bikaner Bikaner Chhatargarh,28.66670,73.13330,01-01-20,32.6
Rajasthan Bikaner Bikaner Deshnokh,27.80000,73.35000,01-01-20,116.8
Rajasthan Bikaner Bikaner Dhirera,28.21670,73.63330,01-01-20,50.9
Rajasthan Bikaner Bikaner Karmisar,27.95860,73.23720,01-01-20,64.1
Rajasthan Bikaner Bikaner Khara,28.19580,73.39110,01-01-20,49.6
Rajasthan Bikaner Bikaner Lakhusar,28.31670,73.19170,01-01-20,42.2
Rajasthan Bikaner Bikaner Sattasar,28.59170,73.19170,01-01-20,29.0
Rajasthan Bikaner Kolayat Bajju,27.93330,72.50830,01-01-20,29.5
Rajasthan Bikaner Kolayat Bajju (Tejpura),27.91670,72.53560,01-01-20,29.4
Rajasthan Bikaner Kolayat Bhikampur Shallow,27.76220,72.16390,01-01-20,16.6
Rajasthan Bikaner Kolayat Bithnok,27.93810,72.68060,01-01-20,56.7
Rajasthan Bikaner Kolayat Gariyala,27.78330,72.63330,01-01-20,62.5
Rajasthan Bikaner Kolayat Godu,27.99170,72.29670,01-01-20,19.1
Rajasthan Bikaner Kolayat Godu_I,27.98330,72.35000,01-01-20,16.6
Rajasthan Bikaner Kolayat Godu_Ii,27.98330,72.35000,01-01-20,14.7
Rajasthan Bikaner Kolayat Jaggasar,28.30830,72.51780,01-01-20,17.5
Rajasthan Bikaner Kolayat Kandharli Deep,28.04170,72.35000,01-01-20,11.9
Rajasthan Bikaner Kolayat Kandharli Shallow,28.04170,72.35000,01-01-20,11.7
Rajasthan Bikaner Kolayat Mankasar,28.03500,72.49170,01-01-20,12.0
Rajasthan Bikaner Kolayat Modayat,27.96670,72.41670,01-01-20,15.2
Rajasthan Bikaner Kolayat Ranjitpura,28.02640,72.12500,01-01-20,24.6
Rajasthan Bikaner Lunkaransar Arjansar,28.93330,73.88330,01-01-20,17.2
Rajasthan Bikaner Lunkaransar Baderan,28.70140,73.76420,01-01-20,37.6
Rajasthan Bikaner Lunkaransar Binjawari,28.46170,73.46420,01-01-20,4.5
Rajasthan Bikaner Lunkaransar Hanseran,28.44420,73.63460,01-01-20,34.5
Rajasthan Bikaner Lunkaransar Hariasar,28.57640,73.81110,01-01-20,29.9
Rajasthan Bikaner Lunkaransar Kasturia,28.32780,73.49170,01-01-20,34.1
Rajasthan Bikaner Lunkaransar Kasturia,28.32920,73.48750,01-01-20,34.5
Rajasthan Bikaner Lunkaransar Kharbaro,28.93330,73.40830,01-01-20,6.6
Rajasthan Bikaner Lunkaransar Khirera,28.47920,73.55830,01-01-20,6.4
Rajasthan Bikaner Lunkaransar Lakhansar_Dw,28.86670,73.35000,01-01-20,10.5
Rajasthan Bikaner Lunkaransar Laxmi Narayansar Dhani,28.63330,73.60000,01-01-20,6.6
Rajasthan Bikaner Lunkaransar Lunkaransar,28.49170,73.75000,01-01-20,52.4
Rajasthan Bikaner Lunkaransar Mahajan,28.76670,73.81670,01-01-20,37.7
January month Depth to Water Level (In mbgl) Data of Unconfined Aquifer STATE_UT DISTRICT BLOCK VILLAGE LATITUDE LONGITUDE Date WL(mbgl) Rajasthan Bikaner Lunkaransar Malkisar,28.66690,73.91890,01-01-20,15.0
Rajasthan Bikaner Lunkaransar Manaria,28.75830,73.77220,01-01-20,47.5
Rajasthan Bikaner Lunkaransar Raner,28.88470,73.28750,01-01-20,12.5
Rajasthan Bikaner Lunkaransar Sangrew,28.70000,73.88330,01-01-20,22.0
Rajasthan Bikaner Nokha Kakra,27.66670,73.66250,01-01-20,90.7
Rajasthan Bikaner Nokha Kanwalisar,27.50420,73.43330,01-01-20,65.6
Rajasthan Bikaner Sri Dungargarh Lakhasar,28.09580,73.87080,01-01-20,36.1
Rajasthan Bundi Bundi Delunda,25.47080,75.86670,01-01-20,8.1
Rajasthan Bundi Bundi Rajwas,25.49440,75.79000,01-01-20,1.4
Rajasthan Bundi Bundi Ramnagar (Jatan),25.40000,75.55830,01-01-20,1.6
Rajasthan Bundi Hindoli Satur,25.43720,75.51530,01-01-20,6.1
Rajasthan Bundi Keshoraipatan Dahi Khera,25.51670,76.16670,01-01-20,0.9
Rajasthan Bundi Keshoraipatan Gaindoli,25.54170,75.99580,01-01-20,1.2
Rajasthan Bundi Keshoraipatan Kapren,25.39110,76.07360,01-01-20,1.7
Rajasthan Bundi Keshoraipatan Keshoraipatan,25.31890,75.93060,01-01-20,1.1
Rajasthan Bundi Keshoraipatan Lakheri,25.66670,76.18330,01-01-20,0.9
Rajasthan Bundi Keshoraipatan Maija,25.40830,75.88750,01-01-20,1.0
Rajasthan Bundi Nainwa Motipura,25.57000,75.94720,01-01-20,7.5
Rajasthan Bundi Talera Ballop,25.26670,75.75000,01-01-20,1.5
Rajasthan Chittorgarh Begun Dugar,25.10830,74.83330,01-01-20,0.8
Rajasthan Chittorgarh Begun Menal,25.07780,75.16670,01-01-20,1.2
Rajasthan Chittorgarh Begun Parsoli,25.13640,74.88750,01-01-20,1.5
Rajasthan Chittorgarh Bhadesar Bansen,24.72670,74.45000,01-01-20,14.9
Rajasthan Chittorgarh Bhainsrorgarh Kalakhet,24.28000,74.51500,01-01-20,15.3
Rajasthan Chittorgarh Bhainsrorgarh Kapasan,24.86110,74.30830,01-01-20,2.8
Rajasthan Chittorgarh Bhainsrorgarh Kharkhanda,25.03610,74.49170,01-01-20,6.1
Rajasthan Chittorgarh Bhainsrorgarh Mahuda,24.35720,74.35360,01-01-20,14.5
Rajasthan Chittorgarh Bhainsrorgarh Rawatbhata,24.93330,75.59170,01-01-20,2.4
Rajasthan Chittorgarh Bhopalsagar Akola,24.75000,74.19920,01-01-20,7.9
Rajasthan Chittorgarh Chittorgarh Manpura,24.90560,74.64440,01-01-20,7.1
Rajasthan Chittorgarh Chittorgarh Nagari,24.95000,74.68500,01-01-20,7.9
Rajasthan Chittorgarh Chittorgarh Purohitokasavat,24.94170,74.51940,01-01-20,19.2
Rajasthan Chittorgarh Gangrar Gangrar,25.05000,74.63330,01-01-20,5.5
Rajasthan Chittorgarh Kapasan Mungana,24.87500,74.26670,01-01-20,5.6
Rajasthan Chittorgarh Kapasan Singhpur,24.93330,74.45560,01-01-20,2.2
Rajasthan Chittorgarh Rashmi Rashmi,25.06670,74.36250,01-01-20,5.2
Rajasthan Churu Bidasar Bamboo,27.73330,74.11670,01-01-20,64.9
Rajasthan Churu Bidasar Bidasar,27.83860,74.28330,01-01-20,6.9
January month Depth to Water Level (In mbgl) Data of Unconfined Aquifer STATE_UT DISTRICT BLOCK VILLAGE LATITUDE LONGITUDE Date WL(mbgl) Rajasthan Churu Churu Binasar,28.26250,74.87500,01-01-20,33.5
Rajasthan Churu Churu Dudwa Khara,28.47080,75.07920,01-01-20,18.1
Rajasthan Churu Churu Sirsala,28.43330,75.13060,01-01-20,29.5
Rajasthan Churu Rajgarh Dadrewa,28.66940,75.23330,01-01-20,11.5
Rajasthan Churu Rajgarh Harpalu Khusala,28.53330,75.43890,01-01-20,38.7
Rajasthan Churu Rajgarh Nangli,28.63500,75.30000,01-01-20,24.6
Rajasthan Churu Rajgarh Neema,28.46670,75.47220,01-01-20,51.0
Rajasthan Churu Rajgarh Rajgarh,28.63330,75.37500,01-01-20,24.2
Rajasthan Churu Ratangarh Bhojasar,27.97220,74.54170,01-01-20,29.6
Rajasthan Churu Ratangarh Kanwari,27.91670,74.68330,01-01-20,28.3
Rajasthan Churu Ratangarh Loha,28.00830,74.61530,01-01-20,29.5
Rajasthan Churu Ratangarh Melusar,28.20420,74.53060,01-01-20,42.1
Rajasthan Churu Ratangarh Perihara,27.92440,74.56110,01-01-20,20.6
Rajasthan Churu Ratangarh Rajaldesar,28.03750,74.47640,01-01-20,48.4
Rajasthan Churu Ratangarh Sangasar,28.00000,74.65670,01-01-20,29.9
Rajasthan Churu Ratangarh Tidiyasar,28.06670,74.73330,01-01-20,39.8
Rajasthan Churu Sardarshahar Aspalsar,28.57690,74.50440,01-01-20,43.5
Rajasthan Churu Sardarshahar Khundia,28.41390,74.25280,01-01-20,53.0
Rajasthan Churu Sardarshahar Melusar,28.50420,74.73750,01-01-20,23.6
Rajasthan Churu Sardarshahar Sardarshahar,28.43890,74.48580,01-01-20,36.6
Rajasthan Churu Sujangarh Guleriya,27.73750,74.41860,01-01-20,9.1
Rajasthan Churu Taranagar Bhalautibba,28.76030,75.02720,01-01-20,12.2
Rajasthan Churu Taranagar Dhirawas,28.84170,74.90830,01-01-20,9.2
Rajasthan Churu Taranagar Shawa,28.87500,74.84170,01-01-20,13.1
Rajasthan Dausa Bandikui Baswa,27.15940,76.58330,01-01-20,47.1
Rajasthan Dausa Bandikui Sodan Ka Bas,27.09720,76.78670,01-01-20,37.6
Rajasthan Dausa Dausa Baniyana,26.81500,76.28810,01-01-20,10.0
Rajasthan Dausa Dausa Bapi,26.97500,76.29170,01-01-20,9.2
Rajasthan Dausa Dausa Bapi,26.98060,76.28330,01-01-20,12.0
Rajasthan Dausa Dausa Dausa,26.89580,76.32500,01-01-20,19.5
Rajasthan Dausa Dausa Jasuta,26.96670,76.33330,01-01-20,10.4
Rajasthan Dausa Dausa Kalipahari,26.98330,76.38000,01-01-20,29.7
Rajasthan Dausa Dausa Khuri,26.96080,76.29000,01-01-20,25.7
Rajasthan Dausa Dausa Lawan,26.78330,76.21670,01-01-20,43.1
Rajasthan Dausa Lalsot Lakhanpur,26.52000,76.25610,01-01-20,4.5
Rajasthan Dausa Mahwa Ghazipur,26.97500,76.95560,01-01-20,15.5
Rajasthan Dausa Mahwa Higetawari Dhani,26.90000,77.03330,01-01-20,13.0
Rajasthan Dausa Mahwa Talchidi,26.91670,77.01670,01-01-20,15.1
January month Depth to Water Level (In mbgl) Data of Unconfined Aquifer STATE_UT DISTRICT BLOCK VILLAGE LATITUDE LONGITUDE Date WL(mbgl) Rajasthan Dausa Sikrai Bairaonda,26.80720,76.55470,01-01-20,18.8
Rajasthan Dausa Sikrai Langra Balaji,26.95000,76.73330,01-01-20,55.9
Rajasthan Deeg Deeg Deeg,27.48000,77.31670,01-01-20,2.9
Rajasthan Deeg Deeg Mandhera,27.39500,77.35250,01-01-20,9.9
Rajasthan Deeg Deeg Pasta,27.55000,77.30000,01-01-20,6.9
Rajasthan Deeg Deeg Sihora,27.57000,77.30000,01-01-20,11.5
Rajasthan Deeg Kaman Jurahra,27.78220,77.22670,01-01-20,8.4
Rajasthan Deeg Kumher Kumher,27.31670,77.38330,01-01-20,2.3
Rajasthan Deeg Nagar Pahari Gopalgarh,27.65470,77.06330,01-01-20,9.6
Rajasthan Deeg Nagar Pahari Jaisari,27.52500,77.07500,01-01-20,9.3
Rajasthan Dholpur Bari Bari,26.65470,77.60580,01-01-20,14.3
Rajasthan Dholpur Bari Chhavri Ka Pura,26.63280,77.69060,01-01-20,7.1
Rajasthan Dholpur Bari Gajpura,26.57860,77.69060,01-01-20,1.4
Rajasthan Dholpur Baseri Angai,26.60500,77.47310,01-01-20,5.8
Rajasthan Dholpur Baseri Lebudapura,26.81670,77.68610,01-01-20,5.1
Rajasthan Dholpur Baseri Nakatpura,26.52220,77.38750,01-01-20,0.7
Rajasthan Dholpur Baseri Salempur,26.75500,77.59720,01-01-20,7.5
Rajasthan Dholpur Dhaulpur Aathmeel,26.64830,77.80190,01-01-20,6.8
Rajasthan Dholpur Dhaulpur Baretha Kalan,26.89610,77.91720,01-01-20,22.6
Rajasthan Dholpur Dhaulpur Dhaulpur,26.69060,77.89110,01-01-20,11.3
Rajasthan Dholpur Dhaulpur Dhaulpur,26.70000,77.89170,01-01-20,13.2
Rajasthan Dholpur Dhaulpur Kanthri,26.85830,77.71670,01-01-20,4.4
Rajasthan Dholpur Dhaulpur Karimpur,26.75140,77.81110,01-01-20,21.5
Rajasthan Dholpur Dhaulpur Mangraul,26.81670,77.95830,01-01-20,36.0
Rajasthan Dholpur Dhaulpur Saipau,26.82170,77.74640,01-01-20,12.5
Rajasthan Dholpur Rajakhera Sikronda,26.93500,78.13750,01-01-20,27.3
Rajasthan Didwana-Kuchaman Didwana Chhoti Khatu,27.15420,74.34580,01-01-20,16.1
Rajasthan Didwana-Kuchaman Didwana Didwana,27.40000,74.55000,01-01-20,13.9
Rajasthan Didwana-Kuchaman Didwana Kolia,27.34580,74.48330,01-01-20,18.2
Rajasthan Didwana-Kuchaman Didwana Kolia,27.34580,74.48330,01-01-20,18.4
Rajasthan Didwana-Kuchaman Didwana Raghunathpura,27.37530,74.51670,01-01-20,28.6
Rajasthan Didwana-Kuchaman Didwana Singhana,27.47530,74.51250,01-01-20,30.0
Rajasthan Didwana-Kuchaman Kuchaman Kuchaman,27.14470,74.86610,01-01-20,57.0
Rajasthan Didwana-Kuchaman Ladnu Bankalia,27.57030,74.43330,01-01-20,23.2
Rajasthan Didwana-Kuchaman Ladnu Manu,27.56110,74.25560,01-01-20,39.2
Rajasthan Didwana-Kuchaman Ladnu Sanward,27.51670,74.51670,01-01-20,28.3
Rajasthan Didwana-Kuchaman Makrana Modi Charanan,27.01390,74.54390,01-01-20,36.7
Rajasthan Didwana-Kuchaman Makrana Rani Gaon,27.08890,74.42310,01-01-20,49.9
January month Depth to Water Level (In mbgl) Data of Unconfined Aquifer STATE_UT DISTRICT BLOCK VILLAGE LATITUDE LONGITUDE Date WL(mbgl) Rajasthan Didwana-Kuchaman Parbatsar Bagot_Dw,26.81310,74.59110,01-01-20,39.8
Rajasthan Dudu Dudu Dhandoli,26.52930,75.12890,01-01-20,2.0
Rajasthan Dudu Dudu Gadota,26.78360,75.41390,01-01-20,9.2
Rajasthan Dudu Dudu Mangarwara,26.61000,75.27780,01-01-20,2.7
Rajasthan Dudu Dudu Mehla,26.81060,75.47860,01-01-20,22.3
Rajasthan Dudu Dudu Mozmabad,26.68330,75.36250,01-01-20,6.7
Rajasthan Dudu Dudu Nasnota,26.80000,75.44330,01-01-20,5.3
Rajasthan Dudu Dudu Pallukhurd,26.73610,75.32500,01-01-20,9.1
Rajasthan Dudu Phagi Bhojpura,26.62220,75.61360,01-01-20,4.9
Rajasthan Dudu Phagi Chakwara,26.60560,75.51250,01-01-20,11.7
Rajasthan Dudu Phagi Chakwara,26.60780,75.50720,01-01-20,7.0
Rajasthan Dudu Phagi Chandama,26.50610,75.66000,01-01-20,4.3
Rajasthan Dudu Phagi Choru,26.59250,75.45000,01-01-20,10.2
Rajasthan Dudu Phagi Choru,26.59640,75.45000,01-01-20,14.1
Rajasthan Dudu Phagi Ghatyali,26.50330,75.41140,01-01-20,9.8
Rajasthan Dudu Phagi Ghatyali,26.50640,75.38810,01-01-20,4.1
Rajasthan Dudu Phagi Kansel,26.72750,75.50440,01-01-20,5.8
Rajasthan Dudu Phagi Ladana,26.64810,75.58780,01-01-20,8.1
Rajasthan Dudu Phagi Ladana,26.65140,75.58640,01-01-20,4.9
Rajasthan Dudu Phagi Lasariya,26.55720,75.50860,01-01-20,10.0
Rajasthan Dudu Phagi Mohanpura (Ranwa),26.56310,75.58690,01-01-20,8.9
Rajasthan Dudu Phagi Nemeda,26.50390,75.51360,01-01-20,5.0
Rajasthan Dudu Phagi Nemeda,26.51220,75.51750,01-01-20,6.3
Rajasthan Dudu Phagi Parun,26.50580,75.60670,01-01-20,3.3
Rajasthan Dudu Phagi Parun,26.51220,75.60190,01-01-20,4.5
Rajasthan Dudu Phagi Phagi,26.57940,75.56750,01-01-20,5.5
Rajasthan Dudu Phagi Tickel,26.67220,75.51060,01-01-20,5.8
Rajasthan Dudu Phagi Tickel,26.70640,75.50170,01-01-20,7.4
Rajasthan Dungarpur Aspur Aspur,23.95000,74.08330,01-01-20,9.4
Rajasthan Dungarpur Aspur Aspur,23.95830,74.07920,01-01-20,1.6
Rajasthan Dungarpur Aspur Baroda,23.90580,74.07080,01-01-20,0.4
Rajasthan Dungarpur Aspur Kabja,23.85000,74.07000,01-01-20,2.1
Rajasthan Dungarpur Aspur Ramgarh,23.92500,73.96670,01-01-20,6.6
Rajasthan Dungarpur Aspur Sabla,23.85560,74.18000,01-01-20,2.4
Rajasthan Dungarpur Bichiwara Gorada,23.69220,73.72440,01-01-20,5.5
Rajasthan Dungarpur Bichiwara Naval Shyam,23.84170,73.57420,01-01-20,4.7
Rajasthan Dungarpur Bichiwara Nayadera,23.83330,73.68330,01-01-20,5.1
Rajasthan Dungarpur Dovada Anteree,23.75390,73.84780,01-01-20,3.0
January month Depth to Water Level (In mbgl) Data of Unconfined Aquifer STATE_UT DISTRICT BLOCK VILLAGE LATITUDE LONGITUDE Date WL(mbgl) Rajasthan Dungarpur Dovada Hathai,23.88860,73.90080,01-01-20,1.1
Rajasthan Dungarpur Dungarpur Dungarpur,23.83330,73.72080,01-01-20,2.4
Rajasthan Dungarpur Dungarpur Manpur,23.85000,73.77920,01-01-20,2.7
Rajasthan Dungarpur Galiyakoat Chitri,23.56670,73.96670,01-01-20,4.0
Rajasthan Dungarpur Galiyakoat Ubli,23.50530,74.01580,01-01-20,11.7
Rajasthan Dungarpur Sagwara Bhilura,23.62000,74.08330,01-01-20,2.9
Rajasthan Dungarpur Sagwara Nandor,23.68330,73.95830,01-01-20,2.4
Rajasthan Dungarpur Sagwara Nayagaon,23.71580,74.04170,01-01-20,4.2
Rajasthan Dungarpur Sagwara Sagwara,23.75000,74.02810,01-01-20,4.9
Rajasthan Dungarpur Simalwara Peeth,23.52920,73.76250,01-01-20,3.0
Rajasthan Ganganagar Ganganagar Chunawad,29.82500,73.72920,01-01-20,9.8
Rajasthan Ganganagar Ganganagar Tatarsar,29.80830,73.73330,01-01-20,27.9
Rajasthan Ganganagar Karanpur Karanpur,29.81670,73.45000,01-01-20,4.7
Rajasthan Ganganagar Karanpur Rupanagar,29.79580,73.44580,01-01-20,4.9
Rajasthan Ganganagar Karanpur Sunderpura,30.02940,73.66530,01-01-20,8.0
Rajasthan Ganganagar Padampur Binjbalia,29.63330,73.76670,01-01-20,14.9
Rajasthan Ganganagar Padampur Delwan,29.72500,73.59580,01-01-20,9.7
Rajasthan Ganganagar Padampur Ganguwala,29.59580,73.61670,01-01-20,11.3
Rajasthan Ganganagar Padampur Narsinghpur,29.68280,73.85830,01-01-20,17.0
Rajasthan Ganganagar Raisinghnagar Dabla,29.49170,73.62920,01-01-20,10.3
Rajasthan Ganganagar Raisinghnagar Gajsinghpura,29.63330,73.45000,01-01-20,8.0
Rajasthan Ganganagar Raisinghnagar Jagatsinghwala,29.51250,73.61670,01-01-20,10.2
Rajasthan Ganganagar Raisinghnagar Muklawa,29.52080,73.58330,01-01-20,10.2
Rajasthan Ganganagar Raisinghnagar Raisinghnagar,29.54170,73.45000,01-01-20,9.9
Rajasthan Ganganagar Sadulshahar Ganeshgarh,29.74580,73.90000,01-01-20,16.1
Rajasthan Ganganagar Sadulshahar Lalgarh Jatan,29.84170,74.02220,01-01-20,18.5
Rajasthan Ganganagar Sadulshahar Sunderpura_Dw,29.79860,74.08940,01-01-20,24.4
Rajasthan Ganganagar Sadulshahar Suranwali,29.69580,73.91670,01-01-20,16.5
Rajasthan Ganganagar Suratgarh Bhopalpura,29.03330,73.60500,01-01-20,2.8
Rajasthan Ganganagar Suratgarh Birdhwal,29.11670,73.91940,01-01-20,39.4
Rajasthan Ganganagar Suratgarh Harisinghpura,29.12920,73.78750,01-01-20,18.4
Rajasthan Ganganagar Suratgarh Lalgariya,29.10000,73.71670,01-01-20,24.2
Rajasthan Ganganagar Suratgarh Padampura,29.27500,73.77500,01-01-20,1.2
Rajasthan Ganganagar Suratgarh Pipasar,29.05000,73.85420,01-01-20,39.2
Rajasthan Ganganagar Suratgarh Piperan,29.24830,73.90000,01-01-20,7.1
Rajasthan Ganganagar Suratgarh Rayanwali,29.18330,73.95000,01-01-20,18.3
Rajasthan Ganganagar Suratgarh Rayanwali Deep,29.18500,73.95080,01-01-20,17.7
Rajasthan Ganganagar Suratgarh Rayanwali Shallow,29.18500,73.95080,01-01-20,17.1
January month Depth to Water Level (In mbgl) Data of Unconfined Aquifer STATE_UT DISTRICT BLOCK VILLAGE LATITUDE LONGITUDE Date WL(mbgl) Rajasthan Gangapurcity Bamanwas Bamnawas,26.55000,76.56110,01-01-20,6.4
Rajasthan Gangapurcity Gangapur City Gangapur,26.48330,76.73330,01-01-20,9.0
Rajasthan Gangapurcity Gangapur City Meenapara,26.41140,76.62030,01-01-20,17.2
Rajasthan Gangapurcity Gangapur City Ram Singh Pura,26.56780,76.72830,01-01-20,1.8
Rajasthan Gangapurcity Gangapur City Sewa,26.52500,76.83690,01-01-20,6.0
Rajasthan Gangapurcity Nadauti Nadauti,26.71750,76.68860,01-01-20,1.4
Rajasthan Gangapurcity Nadauti Sahar,26.60830,76.71140,01-01-20,3.5
Rajasthan Hanumangarh Bhadra Chhani Bari,29.18330,75.32500,01-01-20,10.2
Rajasthan Hanumangarh Bhadra Dungrana,29.01390,75.09720,01-01-20,11.6
Rajasthan Hanumangarh Bhadra Malsisar,28.97080,75.03330,01-01-20,13.4
Rajasthan Hanumangarh Bhadra Munsari,29.10000,75.03330,01-01-20,14.5
Rajasthan Hanumangarh Hanumangarh Chak Sampatnagar,29.69720,74.29440,01-01-20,23.8
Rajasthan Hanumangarh Hanumangarh Chohlinyawali,29.37920,74.27080,01-01-20,1.0
Rajasthan Hanumangarh Hanumangarh Dholipal,29.75830,74.26670,01-01-20,22.6
Rajasthan Hanumangarh Hanumangarh Goluwala,29.63330,74.06000,01-01-20,26.0
Rajasthan Hanumangarh Hanumangarh Hanumangarh Rau,29.61670,74.28330,01-01-20,22.7
Rajasthan Hanumangarh Hanumangarh Kohla,29.56110,74.33330,01-01-20,20.9
Rajasthan Hanumangarh Hanumangarh Pakkasarna,29.68330,74.16250,01-01-20,28.4
Rajasthan Hanumangarh Hanumangarh Pale Wali Dhani,29.68330,74.10000,01-01-20,25.2
Rajasthan Hanumangarh Hanumangarh Panditawali,29.41250,74.20000,01-01-20,8.6
Rajasthan Hanumangarh Hanumangarh Satipura,29.62500,74.31670,01-01-20,27.4
Rajasthan Hanumangarh Nohar Bhukarka,29.23330,74.75000,01-01-20,15.8
Rajasthan Hanumangarh Nohar Lakhasar,29.03330,74.73330,01-01-20,15.7
Rajasthan Hanumangarh Nohar Nohar,29.28060,74.76670,01-01-20,14.8
Rajasthan Hanumangarh Nohar Ramsara,29.25000,74.83330,01-01-20,18.6
Rajasthan Hanumangarh Pilibanga Kalibanga,29.47500,74.12690,01-01-20,24.6
Rajasthan Hanumangarh Pilibanga Lakhasar,29.56250,73.97080,01-01-20,20.5
Rajasthan Hanumangarh Pilibanga Ramsara,29.39580,73.94080,01-01-20,17.0
Rajasthan Hanumangarh Pilibanga Sardarpura,29.28330,74.17080,01-01-20,14.9
Rajasthan Hanumangarh Pilibanga Suratgarh,29.46670,73.93330,01-01-20,8.1
Rajasthan Hanumangarh Rawatsar Biramsar,29.07500,74.30000,01-01-20,23.7
Rajasthan Hanumangarh Rawatsar Bisrasar,28.86670,74.27780,01-01-20,44.5
Rajasthan Hanumangarh Rawatsar Dudhal,28.90830,74.13330,01-01-20,45.8
Rajasthan Hanumangarh Rawatsar Gandehali,29.21670,74.53330,01-01-20,4.2
Rajasthan Hanumangarh Rawatsar Lakheran,28.97500,74.29170,01-01-20,35.4
Rajasthan Hanumangarh Rawatsar Pallu,28.91670,74.20000,01-01-20,43.7
Rajasthan Hanumangarh Rawatsar Purabsar,29.03330,74.28330,01-01-20,30.5
Rajasthan Hanumangarh Rawatsar Rawatsar,29.25280,74.41390,01-01-20,2.7
January month Depth to Water Level (In mbgl) Data of Unconfined Aquifer STATE_UT DISTRICT BLOCK VILLAGE LATITUDE LONGITUDE Date WL(mbgl) Rajasthan Hanumangarh Rawatsar Rawatsar Shallow,29.25500,74.40970,01-01-20,7.0
Rajasthan Hanumangarh Sangaria Bhagatpura,29.87500,74.46670,01-01-20,12.9
Rajasthan Hanumangarh Sangaria Bolanwali,29.83750,74.40970,01-01-20,15.1
Rajasthan Hanumangarh Sangaria Kheruwala,29.84580,74.24170,01-01-20,2.1
Rajasthan Hanumangarh Sangaria Ratanpura,29.85000,74.45000,01-01-20,0.4
Rajasthan Hanumangarh Tibbi Chistian,29.35890,74.59860,01-01-20,34.1
Rajasthan Hanumangarh Tibbi Salewali,29.70000,74.48750,01-01-20,6.9
Rajasthan Jaipur Jaipur Amber,26.98330,75.86670,01-01-20,11.1
Rajasthan Jaipur Jaipur Budhpura_Imd,26.82140,75.81750,01-01-20,46.9
Rajasthan Jaipur Jaipur Cgwb Campus Jaipur,26.87500,75.81530,01-01-20,52.7
Rajasthan Jaipur Jaipur Durgapura,26.84170,75.78890,01-01-20,57.3
Rajasthan Jaipur Jaipur Gwd Campus,26.87360,75.81970,01-01-20,53.3
Rajasthan Jaipur Jaipur Harmara,27.01060,75.75830,01-01-20,82.8
Rajasthan Jaipur Jaipur Heerapura,26.88810,75.71690,01-01-20,76.2
Rajasthan Jaipur Jaipur Jaisingpur Khor,26.94480,75.88060,01-01-20,36.9
Rajasthan Jaipur Jaipur Jhotwara,26.94330,75.74440,01-01-20,71.1
Rajasthan Jaipur Jaipur Mahal,26.83330,75.86670,01-01-20,55.3
Rajasthan Jaipur Jaipur Mansarovar,26.85330,75.76670,01-01-20,36.9
Rajasthan Jaipur Jaipur Mansarovar Gwd,26.85280,75.76670,01-01-20,34.2
Rajasthan Jaipur Jaipur Mes Jaipur,26.93330,75.77920,01-01-20,34.5
Rajasthan Jaipur (Gramin) Bassi Deogaon,26.73940,76.05690,01-01-20,47.7
Rajasthan Jaipur (Gramin) Bassi Gangarampur,26.76420,75.98470,01-01-20,51.9
Rajasthan Jaipur (Gramin) Bassi Jatwara,26.87560,76.20830,01-01-20,26.2
Rajasthan Jaipur (Gramin) Bassi Madhogarh,26.75310,76.16580,01-01-20,35.4
Rajasthan Jaipur (Gramin) Bassi Maharajpura,26.78140,75.99780,01-01-20,50.9
Rajasthan Jaipur (Gramin) Bassi Mohanpura,26.85330,76.08140,01-01-20,50.1
Rajasthan Jaipur (Gramin) Bassi Padasoli,26.94640,76.18470,01-01-20,31.3
Rajasthan Jaipur (Gramin) Bassi Rojwari,26.78030,76.17560,01-01-20,53.7
Rajasthan Jaipur (Gramin) Chaksu Chaksu,26.60000,75.95000,01-01-20,14.0
Rajasthan Jaipur (Gramin) Chaksu Goner,26.75560,75.89940,01-01-20,12.9
Rajasthan Jaipur (Gramin) Chaksu Shivdaspura,26.71360,75.89030,01-01-20,18.4
Rajasthan Jaipur (Gramin) Chaksu Thalli,26.61250,75.85720,01-01-20,6.2
Rajasthan Jaipur (Gramin) Chaksu Tootoli,26.63420,75.79940,01-01-20,16.6
Rajasthan Jaipur (Gramin) Govindgarh Alisar,27.23440,75.58250,01-01-20,55.3
Rajasthan Jaipur (Gramin) Govindgarh Astikalan,27.27080,75.50890,01-01-20,72.4
Rajasthan Jaipur (Gramin) Govindgarh Dhodsar,27.30280,75.61670,01-01-20,55.8
Rajasthan Jaipur (Gramin) Govindgarh Hastera,27.22560,75.52970,01-01-20,32.7
Rajasthan Jaipur (Gramin) Govindgarh Kaladera,27.18610,75.63780,01-01-20,57.0
January month Depth to Water Level (In mbgl) Data of Unconfined Aquifer STATE_UT DISTRICT BLOCK VILLAGE LATITUDE LONGITUDE Date WL(mbgl) Rajasthan Jaipur (Gramin) Govindgarh Kanarpura,27.18390,75.57170,01-01-20,51.6
Rajasthan Jaipur (Gramin) Govindgarh Niwana,27.27560,75.73190,01-01-20,61.6
Rajasthan Jaipur (Gramin) Govindgarh Tigaria,27.29190,75.77780,01-01-20,66.9
Rajasthan Jaipur (Gramin) Jalsu Rajarampura,27.09250,75.75360,01-01-20,58.6
Rajasthan Jaipur (Gramin) Jamwa Ramgarh Datal Gurjran,27.18330,76.06670,01-01-20,32.9
Rajasthan Jaipur (Gramin) Jamwa Ramgarh Jamwa Ramgarh,27.01780,76.01190,01-01-20,49.9
Rajasthan Jaipur (Gramin) Jamwa Ramgarh Kharana,26.99920,76.11670,01-01-20,46.9
Rajasthan Jaipur (Gramin) Jamwa Ramgarh Malawala,27.00280,75.97500,01-01-20,53.3
Rajasthan Jaipur (Gramin) Jamwa Ramgarh Naila,26.91890,75.97810,01-01-20,59.6
Rajasthan Jaipur (Gramin) Jamwa Ramgarh Raiser,27.14750,76.11530,01-01-20,37.1
Rajasthan Jaipur (Gramin) Jamwa Ramgarh Saipura,26.98170,75.92470,01-01-20,65.0
Rajasthan Jaipur (Gramin) Jamwa Ramgarh Samred Kalan,27.10530,76.09110,01-01-20,45.1
Rajasthan Jaipur (Gramin) Jhotwara Bindayaka,26.91830,75.64860,01-01-20,46.4
Rajasthan Jaipur (Gramin) Jhotwara Kalwad,26.97500,75.60000,01-01-20,48.5
Rajasthan Jaipur (Gramin) Jhotwara Lalpura,26.98720,75.53080,01-01-20,84.6
Rajasthan Jaipur (Gramin) Jhotwara N.Purohitan,27.05000,75.75000,01-01-20,54.2
Rajasthan Jaipur (Gramin) Madhorajpura Bhankrota,26.56330,75.69470,01-01-20,64.5
Rajasthan Jaipur (Gramin) Madhorajpura Chandama Kallan,26.50780,75.66280,01-01-20,2.4
Rajasthan Jaipur (Gramin) Madhorajpura Chittora,26.63810,75.70190,01-01-20,15.5
Rajasthan Jaipur (Gramin) Madhorajpura Chittora,26.64080,75.69890,01-01-20,7.6
Rajasthan Jaipur (Gramin) Madhorajpura Dawach,26.56670,75.76670,01-01-20,9.6
Rajasthan Jaipur (Gramin) Madhorajpura Dawach,26.56720,75.75420,01-01-20,10.6
Rajasthan Jaipur (Gramin) Madhorajpura Didwata,26.49390,75.73000,01-01-20,13.9
Rajasthan Jaipur (Gramin) Madhorajpura Didwata,26.49670,75.73830,01-01-20,17.0
Rajasthan Jaipur (Gramin) Madhorajpura Madhorajpur,26.57610,75.64030,01-01-20,6.3
Rajasthan Jaipur (Gramin) Madhorajpura Madhorajpur,26.57720,75.65580,01-01-20,14.5
Rajasthan Jaipur (Gramin) Madhorajpura Majhi Renwal,26.69060,75.67560,01-01-20,23.1
Rajasthan Jaipur (Gramin) Madhorajpura Majhi Renwal,26.69580,75.68330,01-01-20,29.2
Rajasthan Jaipur (Gramin) Sambhar Bandh Ke Balaji,26.86190,75.36280,01-01-20,39.9
Rajasthan Jaipur (Gramin) Sambhar Jobner,26.97890,75.39470,01-01-20,24.2
Rajasthan Jaipur (Gramin) Sambhar Kheerwa,27.05390,75.40920,01-01-20,56.2
Rajasthan Jaipur (Gramin) Sambhar Mohanpur Balaji,27.16500,75.35720,01-01-20,58.8
Rajasthan Jaipur (Gramin) Sambhar Naraina,26.79310,75.18810,01-01-20,5.6
Rajasthan Jaipur (Gramin) Sambhar Phulera,26.87500,75.23810,01-01-20,4.9
Rajasthan Jaipur (Gramin) Sambhar Sambhar,26.90610,75.22000,01-01-20,10.8
Rajasthan Jaipur (Gramin) Sambhar Sirohikhurd,26.79170,75.15000,01-01-20,5.3
Rajasthan Jaipur (Gramin) Sanganer Barkabalaji,26.76670,75.63330,01-01-20,62.7
Rajasthan Jaipur (Gramin) Sanganer Bilwa,26.74580,75.85500,01-01-20,13.1
January month Depth to Water Level (In mbgl) Data of Unconfined Aquifer STATE_UT DISTRICT BLOCK VILLAGE LATITUDE LONGITUDE Date WL(mbgl) Rajasthan Jaipur (Gramin) Sanganer Chirota,26.79690,75.57720,01-01-20,26.4
Rajasthan Jaipur (Gramin) Sanganer Dahmi Kallan,26.83330,75.56670,01-01-20,48.3
Rajasthan Jaipur (Gramin) Sanganer Mathurawala,26.73280,75.85860,01-01-20,7.8
Rajasthan Jaipur (Gramin) Sanganer Mohana,26.77720,75.71610,01-01-20,45.7
Rajasthan Jaipur (Gramin) Shahpura Amarsar,27.37530,75.82860,01-01-20,66.0
Rajasthan Jaipur (Gramin) Shahpura Bidhara,27.36610,75.95390,01-01-20,93.2
Rajasthan Jaipur (Gramin) Shahpura Dhawali,27.22970,75.83690,01-01-20,45.1
Rajasthan Jaipur (Gramin) Shahpura Khora Ladkhani,27.30310,76.03830,01-01-20,47.0
Rajasthan Jaipur (Gramin) Shahpura Manohrpura,27.30530,75.95420,01-01-20,54.5
Rajasthan Jaipur (Gramin) Viratnagar Antella,27.50140,76.02360,01-01-20,31.1
Rajasthan Jaipur (Gramin) Viratnagar Palri,27.34470,76.11390,01-01-20,14.6
Rajasthan Jaisalmer Jaisalmer Awai,27.51670,71.83330,01-01-20,6.4
Rajasthan Jaisalmer Jaisalmer Baishakhi,27.03330,70.90000,01-01-20,23.8
Rajasthan Jaisalmer Jaisalmer Bhadrias,27.48330,71.78330,01-01-20,9.8
Rajasthan Jaisalmer Jaisalmer Bhavanipura Deep,27.72030,71.98060,01-01-20,13.6
Rajasthan Jaisalmer Jaisalmer Bhavanipura Shallow,27.72000,71.97940,01-01-20,14.5
Rajasthan Jaisalmer Jaisalmer Boa,27.18690,70.99720,01-01-20,48.7
Rajasthan Jaisalmer Jaisalmer Borana,27.64580,72.12500,01-01-20,31.4
Rajasthan Jaisalmer Jaisalmer Delasar,26.96670,71.35830,01-01-20,71.5
Rajasthan Jaisalmer Jaisalmer Deva,27.27500,70.97500,01-01-20,29.0
Rajasthan Jaisalmer Jaisalmer Dhaisar,26.90420,71.35830,01-01-20,61.9
Rajasthan Jaisalmer Jaisalmer Ghantiyali,27.45220,71.46310,01-01-20,36.1
Rajasthan Jaisalmer Jaisalmer Hamira,27.00000,71.05420,01-01-20,43.0
Rajasthan Jaisalmer Jaisalmer Jaisalmer,26.94170,70.90970,01-01-20,35.8
Rajasthan Jaisalmer Jaisalmer Jawahar Nagar Deep,27.54190,71.14830,01-01-20,22.8
Rajasthan Jaisalmer Jaisalmer Jawahar Nagar Shallow,27.54190,71.14830,01-01-20,8.8
Rajasthan Jaisalmer Jaisalmer Jjw Deep,27.54360,71.29720,01-01-20,33.6
Rajasthan Jaisalmer Jaisalmer Lanela,27.07780,70.80830,01-01-20,37.2
Rajasthan Jaisalmer Jaisalmer Moolsagar,26.90000,70.84170,01-01-20,71.8
Rajasthan Jaisalmer Jaisalmer Moolsagar,26.91250,70.83500,01-01-20,15.7
Rajasthan Jaisalmer Jaisalmer Nachna,27.51670,71.72080,01-01-20,8.8
Rajasthan Jaisalmer Jaisalmer Neweata,27.61250,72.03330,01-01-20,22.2
Rajasthan Jaisalmer Jaisalmer Rd5,27.56110,71.08000,01-01-20,37.2
Rajasthan Jaisalmer Jaisalmer Sanwala,26.98330,71.23330,01-01-20,33.0
Rajasthan Jaisalmer Jaisalmer Sataya_Dw,27.42000,71.65890,01-01-20,19.4
Rajasthan Jaisalmer Jaisalmer Shekhowala,27.55000,71.70830,01-01-20,11.1
Rajasthan Jaisalmer Sam Gamanewala,27.48610,70.31610,01-01-20,65.3
Rajasthan Jaisalmer Sam Gotaru,27.31670,70.03750,01-01-20,33.2
January month Depth to Water Level (In mbgl) Data of Unconfined Aquifer STATE_UT DISTRICT BLOCK VILLAGE LATITUDE LONGITUDE Date WL(mbgl) Rajasthan Jaisalmer Sam Khariakua_Dw,27.71670,70.32500,01-01-20,35.1
Rajasthan Jaisalmer Sam Khuri,26.60000,70.70000,01-01-20,9.7
Rajasthan Jaisalmer Sam Khuyiala,27.12670,70.50830,01-01-20,23.7
Rajasthan Jaisalmer Sam Kucheri,27.07280,70.55690,01-01-20,104.5
Rajasthan Jaisalmer Sam Kuria,26.61860,70.48670,01-01-20,34.6
Rajasthan Jaisalmer Sam Mayathiwala,27.48720,70.35640,01-01-20,65.0
Rajasthan Jaisalmer Sam Nathu Ka Bera,27.81110,70.41530,01-01-20,31.0
Rajasthan Jaisalmer Sam Phulia,26.38330,70.47110,01-01-20,60.0
Rajasthan Jaisalmer Sam Phulia,26.39000,70.47170,01-01-20,73.9
Rajasthan Jaisalmer Sam Ramgarh,27.35830,70.50000,01-01-20,57.5
Rajasthan Jaisalmer Sam Ramgarh Ignp,27.35830,70.48330,01-01-20,42.5
Rajasthan Jaisalmer Sam Ranau,27.59330,70.45000,01-01-20,66.5
Rajasthan Jaisalmer Sam Sadewala,27.63470,70.24440,01-01-20,40.9
Rajasthan Jaisalmer Sam Sam,26.82500,70.52330,01-01-20,11.2
Rajasthan Jaisalmer Sam Sanu,27.24000,70.65890,01-01-20,105.8
Rajasthan Jaisalmer Sam Sanwata,26.71670,71.30830,01-01-20,31.9
Rajasthan Jaisalmer Sam Shastri Nagar,27.58250,71.15690,01-01-20,6.5
Rajasthan Jaisalmer Sam Tanot,27.80000,70.36670,01-01-20,30.9
Rajasthan Jaisalmer Sam Tuli Deep,27.59920,71.07360,01-01-20,29.9
Rajasthan Jaisalmer Sam Tuli Shallow,27.59170,71.06670,01-01-20,7.4
Rajasthan Jaisalmer Sankra Chacha,26.97500,71.75280,01-01-20,15.4
Rajasthan Jaisalmer Sankra Garhi Champawat,26.52230,72.01980,01-01-20,17.7
Rajasthan Jaisalmer Sankra Gudi Ka Tala,26.76250,71.60420,01-01-20,7.5
Rajasthan Jaisalmer Sankra Kalewa,26.80560,71.90420,01-01-20,21.5
Rajasthan Jaisalmer Sankra Lakhasar,26.71220,71.43250,01-01-20,38.5
Rajasthan Jaisalmer Sankra Lawan,26.87220,72.05000,01-01-20,15.9
Rajasthan Jaisalmer Sankra Loharki,27.15000,71.76670,01-01-20,72.0
Rajasthan Jaisalmer Sankra Luna Kalan,26.62330,71.57080,01-01-20,13.8
Rajasthan Jaisalmer Sankra Madasar,26.74580,71.50420,01-01-20,8.2
Rajasthan Jaisalmer Sankra Mawa,27.04780,71.89890,01-01-20,22.8
Rajasthan Jaisalmer Sankra Phalsund,26.40830,71.92780,01-01-20,4.8
Rajasthan Jaisalmer Sankra Pokaran,26.92060,71.92530,01-01-20,23.6
Rajasthan Jaisalmer Sankra Pokaran(Pokaran -Ii),26.92030,72.01950,01-01-20,25.7
Rajasthan Jaisalmer Sankra Rajgarh,26.53780,71.54470,01-01-20,20.1
Rajasthan Jaisalmer Sankra Sribhadria,27.08330,71.55000,01-01-20,40.9
Rajasthan Jalore Ahore Gudha Balotan,25.34030,72.85920,01-01-20,39.9
Rajasthan Jalore Ahore Nimla,25.53080,72.86640,01-01-20,12.5
Rajasthan Jalore Bhinmal Bhinmal,25.01250,72.26250,01-01-20,3.8
January month Depth to Water Level (In mbgl) Data of Unconfined Aquifer STATE_UT DISTRICT BLOCK VILLAGE LATITUDE LONGITUDE Date WL(mbgl) Rajasthan Jalore Bhinmal Ledarmer,25.05360,72.34610,01-01-20,24.3
Rajasthan Jalore Jalore Bagra,25.19220,72.60000,01-01-20,78.8
Rajasthan Jalore Jalore Bhagli,25.27860,72.59580,01-01-20,50.7
Rajasthan Jalore Jaswantpura Punak Kalan,24.97500,72.57500,01-01-20,4.3
Rajasthan Jalore Jaswantpura Ramseen,25.03390,72.52060,01-01-20,7.9
Rajasthan Jalore Jaswantpura Serena,25.20250,72.43080,01-01-20,67.3
Rajasthan Jhalawar Aklera Aklera,24.41250,76.56110,01-01-20,4.8
Rajasthan Jhalawar Aklera Asalpur,24.27080,76.50420,01-01-20,4.3
Rajasthan Jhalawar Bhawani Mandi Gauradiya Kalan,24.09720,75.86670,01-01-20,3.6
Rajasthan Jhalawar Bhawani Mandi Karvan Kala,24.17780,75.83330,01-01-20,11.7
Rajasthan Jhalawar Dag Dag,23.94890,75.83470,01-01-20,13.1
Rajasthan Jhalawar Dag Gangdhar,23.93330,75.61670,01-01-20,5.6
Rajasthan Jhalawar Dag Gunavi,23.99500,75.88330,01-01-20,8.1
Rajasthan Jhalawar Dag Gwalat,23.95280,75.70940,01-01-20,4.8
Rajasthan Jhalawar Jhalrapatan Aktasa,24.48750,76.30280,01-01-20,4.6
Rajasthan Jhalawar Jhalrapatan Anvlikalan,24.44170,75.91530,01-01-20,4.4
Rajasthan Jhalawar Jhalrapatan Binda,24.41080,76.18720,01-01-20,4.5
Rajasthan Jhalawar Jhalrapatan Doongargaon,24.43330,76.37500,01-01-20,1.8
Rajasthan Jhalawar Jhalrapatan Gagron,24.66080,76.18920,01-01-20,1.6
Rajasthan Jhalawar Jhalrapatan Ganeshpura,24.48330,75.95970,01-01-20,3.1
Rajasthan Jhalawar Jhalrapatan Gurariya Joga,24.36670,75.83580,01-01-20,5.5
Rajasthan Jhalawar Jhalrapatan Jhalawar,24.61610,76.17610,01-01-20,5.6
Rajasthan Jhalawar Jhalrapatan Jhalrapatan,24.53330,76.15000,01-01-20,6.1
Rajasthan Jhalawar Jhalrapatan Krishanpura Chowki,24.50000,76.09920,01-01-20,2.3
Rajasthan Jhalawar Jhalrapatan Mandawar,24.59780,76.25830,01-01-20,0.7
Rajasthan Jhalawar Jhalrapatan Mishroli,24.27500,75.84170,01-01-20,2.3
Rajasthan Jhalawar Jhalrapatan Nahardi,24.44670,76.20000,01-01-20,2.6
Rajasthan Jhalawar Khanpur Piplaj,24.69390,76.40830,01-01-20,3.7
Rajasthan Jhalawar Manoharthana Gajwara,24.33970,76.77280,01-01-20,1.0
Rajasthan Jhalawar Manoharthana Jhiri,24.28220,76.73060,01-01-20,1.0
Rajasthan Jhalawar Manoharthana Manohar Thana,24.23330,76.80830,01-01-20,11.2
Rajasthan Jhalawar Manoharthana Saredi,24.35000,76.67220,01-01-20,7.6
Rajasthan Jhalawar Pirawa (Sunel) Jaswantpura,24.32890,75.96220,01-01-20,7.1
Rajasthan Jhunjhunu Alsisar Birmi,28.20000,75.17780,01-01-20,40.3
Rajasthan Jhunjhunu Alsisar Churela,28.16390,75.25830,01-01-20,48.3
Rajasthan Jhunjhunu Alsisar Rampura,28.26440,75.31420,01-01-20,38.0
Rajasthan Jhunjhunu Chirawa Khudana,28.18750,75.52220,01-01-20,73.1
Rajasthan Jhunjhunu Chirawa Mandrela,28.31250,75.43970,01-01-20,60.7
January month Depth to Water Level (In mbgl) Data of Unconfined Aquifer STATE_UT DISTRICT BLOCK VILLAGE LATITUDE LONGITUDE Date WL(mbgl) Rajasthan Jhunjhunu Jhunjhunu Jaisinghpura,28.05560,75.25830,01-01-20,51.2
Rajasthan Jhunjhunu Jhunjhunu Math,28.17500,75.45420,01-01-20,53.6
Rajasthan Jhunjhunu Nawalgarh Dighal,28.04580,75.31670,01-01-20,55.9
Rajasthan Jhunjhunu Nawalgarh Mandasi Sandasi,27.99580,75.27500,01-01-20,59.2
Rajasthan Jhunjhunu Nawalgarh Parsarampura,27.81220,75.35420,01-01-20,43.4
Rajasthan Jhunjhunu Udaipurwati Badagaon,28.02500,75.49640,01-01-20,54.6
Rajasthan Jhunjhunu Udaipurwati Sithal,28.00000,75.53330,01-01-20,55.4
Rajasthan Jodhpur Jodhpur Afri(Jodhpur),26.22970,73.02970,01-01-20,16.5
Rajasthan Jodhpur Jodhpur Cazri,26.26670,73.00000,01-01-20,23.4
Rajasthan Jodhpur Jodhpur Cazri(Barali),26.32190,72.95190,01-01-20,19.3
Rajasthan Jodhpur Jodhpur Jodhpur,26.30000,73.03330,01-01-20,7.5
Rajasthan Jodhpur (Gramin) Balesar Agolai,26.28180,72.63090,01-01-20,14.6
Rajasthan Jodhpur (Gramin) Balesar Balesar,26.38330,72.50000,01-01-20,10.0
Rajasthan Jodhpur (Gramin) Balesar Dhirpura,26.48780,72.43330,01-01-20,49.1
Rajasthan Jodhpur (Gramin) Balesar Kanodia Purohitan,26.72310,72.34740,01-01-20,81.6
Rajasthan Jodhpur (Gramin) Balesar Kui Jodha,26.44330,72.47060,01-01-20,4.6
Rajasthan Jodhpur (Gramin) Bawadi Gangani,26.51000,73.21190,01-01-20,6.0
Rajasthan Jodhpur (Gramin) Bawadi Kajnau Kallan,26.74750,73.33360,01-01-20,34.4
Rajasthan Jodhpur (Gramin) Bawadi Soyala,26.82080,73.33750,01-01-20,43.5
Rajasthan Jodhpur (Gramin) Bhopalgarh Asanda,26.80560,73.41220,01-01-20,103.0
Rajasthan Jodhpur (Gramin) Bhopalgarh Devatra,26.51030,73.37780,01-01-20,29.8
Rajasthan Jodhpur (Gramin) Bhopalgarh Kumara,26.73750,73.53750,01-01-20,50.0
Rajasthan Jodhpur (Gramin) Bhopalgarh Kuri,26.55400,73.47050,01-01-20,43.9
Rajasthan Jodhpur (Gramin) Bhopalgarh Ramrawas,26.36940,73.38000,01-01-20,17.3
Rajasthan Jodhpur (Gramin) Bhopalgarh Sargia Kallan,26.53500,73.53750,01-01-20,54.7
Rajasthan Jodhpur (Gramin) Bilara Barna,26.10830,73.76170,01-01-20,65.0
Rajasthan Jodhpur (Gramin) Bilara Benan,26.31670,73.42080,01-01-20,16.3
Rajasthan Jodhpur (Gramin) Bilara Bhawi,26.21940,73.62500,01-01-20,2.4
Rajasthan Jodhpur (Gramin) Bilara Bhawi,26.23170,73.60670,01-01-20,4.8
Rajasthan Jodhpur (Gramin) Bilara Borunda,26.46920,73.79580,01-01-20,120.1
Rajasthan Jodhpur (Gramin) Bilara Ghana Magra,26.28220,73.61420,01-01-20,19.6
Rajasthan Jodhpur (Gramin) Bilara Hariyada,26.11610,73.48420,01-01-20,2.7
Rajasthan Jodhpur (Gramin) Bilara Olvi,26.23330,73.45830,01-01-20,28.1
Rajasthan Jodhpur (Gramin) Luni Bujawar,26.22500,72.90830,01-01-20,24.1
Rajasthan Jodhpur (Gramin) Luni Dhawa,26.05830,72.74170,01-01-20,4.6
Rajasthan Jodhpur (Gramin) Luni Jatyasani,26.10640,72.84440,01-01-20,17.4
Rajasthan Jodhpur (Gramin) Luni Khudala,26.15060,72.83220,01-01-20,27.8
Rajasthan Jodhpur (Gramin) Luni Luni,26.00000,73.02080,01-01-20,1.8
January month Depth to Water Level (In mbgl) Data of Unconfined Aquifer STATE_UT DISTRICT BLOCK VILLAGE LATITUDE LONGITUDE Date WL(mbgl) Rajasthan Jodhpur (Gramin) Luni Mogra,26.11670,73.03310,01-01-20,8.4
Rajasthan Jodhpur (Gramin) Luni Raron Ki Dhani,26.19440,72.77500,01-01-20,35.1
Rajasthan Jodhpur (Gramin) Luni Sajjara,26.11390,73.24720,01-01-20,3.3
Rajasthan Jodhpur (Gramin) Mandor Bambore,26.32920,72.72500,01-01-20,14.4
Rajasthan Jodhpur (Gramin) Mandor Bisalpur,26.23330,73.31390,01-01-20,3.7
Rajasthan Jodhpur (Gramin) Mandor Chopasni Nath,26.27500,72.93330,01-01-20,4.2
Rajasthan Jodhpur (Gramin) Mandor Dangiwas,26.26670,73.27420,01-01-20,8.7
Rajasthan Jodhpur (Gramin) Mandor Hem Nagar,26.29610,72.78170,01-01-20,35.6
Rajasthan Jodhpur (Gramin) Mandor Karani,26.27220,72.82500,01-01-20,51.4
Rajasthan Jodhpur (Gramin) Mandor Mandore,26.35000,73.04170,01-01-20,8.8
Rajasthan Jodhpur (Gramin) Mandor Rohil Kalan_Dw,26.24670,72.86420,01-01-20,27.8
Rajasthan Jodhpur (Gramin) Mandor Salodi,26.41310,72.84890,01-01-20,23.1
Rajasthan Jodhpur (Gramin) Mandor Soder Ki Dhani,26.28690,73.17360,01-01-20,14.6
Rajasthan Jodhpur (Gramin) Osian Khabania,26.91940,73.16080,01-01-20,83.7
Rajasthan Jodhpur (Gramin) Sekhala Meriya,26.57720,72.54750,01-01-20,54.6
Rajasthan Jodhpur (Gramin) Shergarh Kumaro Ki Dhani,26.33330,72.20000,01-01-20,37.9
Rajasthan Jodhpur (Gramin) Shergarh Nahar Singh Nagar,26.38970,72.28610,01-01-20,42.1
Rajasthan Jodhpur (Gramin) Shergarh Raisar,26.48390,72.31420,01-01-20,42.6
Rajasthan Jodhpur (Gramin) Shergarh Rajwas,26.32500,72.24360,01-01-20,14.1
Rajasthan Jodhpur (Gramin) Shergarh Shergarh,26.32920,72.29500,01-01-20,42.5
Rajasthan Jodhpur (Gramin) Tinwari Daukiyan Ka Bass,26.66580,72.72140,01-01-20,53.2
Rajasthan Karauli Hindaun Badh Kamla,26.69310,76.92500,01-01-20,9.8
Rajasthan Karauli Hindaun Gurla,26.64170,77.00420,01-01-20,17.1
Rajasthan Karauli Hindaun Hindaun,26.73330,77.03330,01-01-20,1.2
Rajasthan Karauli Hindaun Islampur,26.70000,77.01670,01-01-20,6.9
Rajasthan Karauli Karauli Atewa,26.38000,76.92580,01-01-20,12.5
Rajasthan Karauli Karauli Bhauapura,26.54190,77.18220,01-01-20,5.9
Rajasthan Karauli Karauli Karsai,26.42500,76.93330,01-01-20,14.4
Rajasthan Karauli Karauli Keladevi,26.32470,76.93330,01-01-20,0.1
Rajasthan Karauli Karauli Lauhra,26.33110,76.84610,01-01-20,3.9
Rajasthan Karauli Karauli Mamachari,26.43330,76.95000,01-01-20,13.5
Rajasthan Karauli Mandrayal Langra,26.40530,77.12750,01-01-20,18.0
Rajasthan Karauli Sapotra Sapotra,26.29170,76.75250,01-01-20,19.2
Rajasthan Karauli Todabhim Azizpur,26.93330,76.85000,01-01-20,12.4
Rajasthan Karauli Todabhim Karampura,26.82500,76.93330,01-01-20,19.2
Rajasthan Kekri Bhinay Goelo,26.12920,74.92780,01-01-20,2.9
Rajasthan Kekri Bhinay Gopalpura,26.04170,74.71330,01-01-20,6.0
Rajasthan Kekri Bhinay Jhopadiyan,26.02500,74.65830,01-01-20,6.1
January month Depth to Water Level (In mbgl) Data of Unconfined Aquifer STATE_UT DISTRICT BLOCK VILLAGE LATITUDE LONGITUDE Date WL(mbgl) Rajasthan Kekri Kekri Ajagara,26.03330,75.10000,01-01-20,2.1
Rajasthan Kekri Kekri Bogla,25.89000,75.23330,01-01-20,1.6
Rajasthan Kekri Kekri Nai Khera,25.94260,75.18250,01-01-20,4.0
Rajasthan Kekri Sarwar Sanpla,25.91110,75.04170,01-01-20,2.9
Rajasthan Kekri Sarwar Sarwad,26.05000,75.00000,01-01-20,2.8
Rajasthan Khairthal-Tijara Kishangarh Bas Bolni,27.86640,76.79560,01-01-20,22.9
Rajasthan Khairthal-Tijara Kishangarh Bas Kishangarh Bas,27.82000,76.73330,01-01-20,53.9
Rajasthan Khairthal-Tijara Kotkasim Kotkasim,28.03190,76.71530,01-01-20,28.6
Rajasthan Khairthal-Tijara Kotkasim Pur,27.96670,76.71670,01-01-20,27.0
Rajasthan Khairthal-Tijara Mandawar Gangwali Dhani,27.78330,76.50420,01-01-20,55.1
Rajasthan Khairthal-Tijara Tijara Nimli,27.83330,76.93330,01-01-20,9.0
Rajasthan Khairthal-Tijara Tijara Tapukara,28.11000,76.83500,01-01-20,30.0
Rajasthan Khairthal-Tijara Tijara Tijara,27.93310,76.86440,01-01-20,35.8
Rajasthan Kota Itawa Ayana,25.44580,76.43470,01-01-20,5.8
Rajasthan Kota Itawa Gainta,25.57580,76.31000,01-01-20,23.1
Rajasthan Kota Itawa Keshavpura,25.43750,76.40000,01-01-20,2.1
Rajasthan Kota Itawa Khatoli,25.67810,76.47500,01-01-20,12.0
Rajasthan Kota Ladpura Alania,25.04080,75.90670,01-01-20,3.7
Rajasthan Kota Ladpura Borawas,25.02080,75.70000,01-01-20,1.2
Rajasthan Kota Ladpura Dara,24.90830,75.97780,01-01-20,1.5
Rajasthan Kota Ladpura Girdharpura,25.22330,75.82940,01-01-20,3.2
Rajasthan Kota Ladpura Gudli,25.26580,75.91530,01-01-20,2.2
Rajasthan Kota Ladpura Kherarasulpur,25.12110,75.96560,01-01-20,4.1
Rajasthan Kota Ladpura Kota,25.18330,75.85000,01-01-20,5.0
Rajasthan Kota Ladpura Mandana,24.93330,75.93330,01-01-20,3.9
Rajasthan Kota Sangod Rajgarh,25.10000,76.20500,01-01-20,6.1
Rajasthan Kota Sultanpur Digod,25.24170,76.08890,01-01-20,0.3
Rajasthan Kota Sultanpur Gadepan,25.17110,76.20330,01-01-20,1.3
Rajasthan Kota Sultanpur Mandavra,25.36920,76.16250,01-01-20,3.6
Rajasthan Kota Sultanpur Rattanpura,25.36670,76.30000,01-01-20,17.0
Rajasthan Kotputli-Behror Bansur Alanpur,27.81440,76.45720,01-01-20,41.3
Rajasthan Kotputli-Behror Bansur Bansur,27.69170,76.35560,01-01-20,33.8
Rajasthan Kotputli-Behror Bansur Holawas,27.63330,76.33330,01-01-20,44.0
Rajasthan Kotputli-Behror Behror Bhituda,27.94170,76.30830,01-01-20,89.1
Rajasthan Kotputli-Behror Behror Sota Nala,27.85280,76.25890,01-01-20,47.2
Rajasthan Kotputli-Behror Kotputli Kansli,27.69030,76.14470,01-01-20,48.9
Rajasthan Kotputli-Behror Kotputli Paniyala,27.79220,76.24190,01-01-20,45.2
Rajasthan Kotputli-Behror Kotputli Raghunathpura,27.63580,76.12190,01-01-20,57.0
January month Depth to Water Level (In mbgl) Data of Unconfined Aquifer STATE_UT DISTRICT BLOCK VILLAGE LATITUDE LONGITUDE Date WL(mbgl) Rajasthan Kotputli-Behror Kotputli Rajnota,27.59690,76.19220,01-01-20,37.2
Rajasthan Kotputli-Behror Kotputli Sarundh,27.72220,76.12420,01-01-20,64.1
Rajasthan Kotputli-Behror Kotputli Sunderpura,27.70190,76.16330,01-01-20,45.2
Rajasthan Kotputli-Behror Neemrana Janak Singh Pura,27.98250,76.40830,01-01-20,46.1
Rajasthan Kotputli-Behror Neemrana Japaneese Zone,27.99280,76.38750,01-01-20,57.9
Rajasthan Kotputli-Behror Neemrana Kanhawas,28.06250,76.36250,01-01-20,68.4
Rajasthan Kotputli-Behror Neemrana Majri Khurd,27.99720,76.31670,01-01-20,28.7
Rajasthan Nagaur Degana Chosli,26.92970,74.25500,01-01-20,52.4
Rajasthan Nagaur Degana Degana (Gwd),26.81810,74.35470,01-01-20,29.9
Rajasthan Nagaur Khinvsar Deu,27.13330,73.29390,01-01-20,55.0
Rajasthan Nagaur Merta Gathiya,26.59440,73.83720,01-01-20,87.9
Rajasthan Nagaur Merta Merta Road,26.72530,73.92470,01-01-20,86.4
Rajasthan Nagaur Mundwa Khur Khura Khurd,26.96140,73.72750,01-01-20,109.0
Rajasthan Nagaur Mundwa Kuchera,26.94530,73.99580,01-01-20,50.0
Rajasthan Nagaur Nagaur Chilo,27.46530,73.61610,01-01-20,33.8
Rajasthan Nagaur Nagaur Nagaur (Gwd),27.18330,73.75000,01-01-20,23.2
Rajasthan Nagaur Riyan Badi Bhawal,26.48890,74.10970,01-01-20,10.7
Rajasthan Nagaur Riyan Badi Rian,26.53330,74.25000,01-01-20,36.2
Rajasthan Neem Ka Thana Neem Ka Thana Barala,27.74830,75.88170,01-01-20,9.2
Rajasthan Neem Ka Thana Neem Ka Thana Patan,27.80000,75.98330,01-01-20,9.6
Rajasthan Neem Ka Thana Sri Madhopur Ajitgarh,27.41750,75.81670,01-01-20,48.9
Rajasthan Neem Ka Thana Sri Madhopur Nathusar,27.43060,75.71030,01-01-20,51.8
Rajasthan Pali Bali Perwa,25.15830,73.21610,01-01-20,5.1
Rajasthan Pali Bali Radawas,25.18330,73.29170,01-01-20,8.5
Rajasthan Pali Desuri Ghanerao,25.23330,73.52500,01-01-20,6.0
Rajasthan Pali Desuri Ranakpur,25.11640,73.47250,01-01-20,3.1
Rajasthan Pali Desuri Sadri,25.17920,73.46250,01-01-20,7.4
Rajasthan Pali Kharchi(Mar.Jun) Binjliawas,25.82470,73.61250,01-01-20,3.9
Rajasthan Pali Pali Gundoj,25.60830,73.31250,01-01-20,4.2
Rajasthan Pali Pali Pali,25.76670,73.33330,01-01-20,1.6
Rajasthan Pali Rani Station Kirwa,25.49580,73.25830,01-01-20,8.0
Rajasthan Pali Rohat Jaitpura,25.81670,73.06250,01-01-20,5.5
Rajasthan Pali Rohat Rohat,25.95140,73.14310,01-01-20,0.9
Rajasthan Pali Rohat Vaed,25.72440,72.96670,01-01-20,3.7
Rajasthan Pali Sojat Kanawas,25.85280,73.47500,01-01-20,7.3
Rajasthan Pali Sojat Kariasoda,25.83330,73.63750,01-01-20,9.7
Rajasthan Pali Sojat Sardarsamad,25.95780,73.38330,01-01-20,1.2
Rajasthan Pali Sumerpur Balwana,25.11420,73.15860,01-01-20,3.7
January month Depth to Water Level (In mbgl) Data of Unconfined Aquifer STATE_UT DISTRICT BLOCK VILLAGE LATITUDE LONGITUDE Date WL(mbgl) Rajasthan Pali Sumerpur Nimbornath,25.22920,73.16250,01-01-20,3.9
Rajasthan Pali Sumerpur Sanderao,25.31530,73.18280,01-01-20,5.5
Rajasthan Phalodi Bap Bari Dhani,27.34170,72.30640,01-01-20,10.9
Rajasthan Phalodi Bap Boongri,27.35330,73.09530,01-01-20,68.3
Rajasthan Phalodi Bap Ghantiyali,27.36390,72.89570,01-01-20,99.2
Rajasthan Phalodi Bap Luna,27.48130,72.78310,01-01-20,72.8
Rajasthan Phalodi Bapini Hanuman Sagar,26.94940,72.91530,01-01-20,109.7
Rajasthan Phalodi Bapini Parasla,26.88720,72.88530,01-01-20,79.0
Rajasthan Phalodi Dechu Bada Mandla,26.85170,72.21670,01-01-20,108.5
Rajasthan Phalodi Dechu Chordia,26.63780,72.28810,01-01-20,73.6
Rajasthan Phalodi Dechu Dechu,26.77250,72.32690,01-01-20,48.8
Rajasthan Phalodi Phalodi Dhadhu,26.92670,72.14170,01-01-20,109.2
Rajasthan Phalodi Phalodi Khara,27.02670,72.11750,01-01-20,103.2
Rajasthan Phalodi Phalodi Lordiya,27.05670,72.40110,01-01-20,107.0
Rajasthan Phalodi Phalodi Lordiya,27.06110,72.40830,01-01-20,25.7
Rajasthan Phalodi Phalodi Shivpura,27.04170,72.05140,01-01-20,66.4
Rajasthan Pratapgarh Arnod Arnod,23.90000,74.81250,01-01-20,9.1
Rajasthan Pratapgarh Arnod Moheda,23.77500,74.85830,01-01-20,6.2
Rajasthan Pratapgarh Arnod Ninor,23.62500,74.86640,01-01-20,1.6
Rajasthan Pratapgarh Arnod Ninor,23.62580,74.86580,01-01-20,1.6
Rajasthan Pratapgarh Chhoti Sadri Choti Sadri,24.38610,74.70000,01-01-20,2.3
Rajasthan Pratapgarh Chhoti Sadri Dholapani,24.26670,74.67500,01-01-20,1.7
Rajasthan Pratapgarh Dhariawad Arampur,24.25140,74.41670,01-01-20,0.7
Rajasthan Pratapgarh Dhariawad Jawahar Nagar,24.09250,74.47970,01-01-20,2.9
Rajasthan Pratapgarh Dhariawad Khunta,24.03330,74.45830,01-01-20,4.1
Rajasthan Pratapgarh Dhariawad Mungana,23.96000,74.43470,01-01-20,9.1
Rajasthan Pratapgarh Peepal Khoont Jhatia Bari,23.74250,74.68310,01-01-20,5.3
Rajasthan Pratapgarh Peepal Khoont Lamba Dabra,23.84390,74.63780,01-01-20,3.1
Rajasthan Pratapgarh Peepal Khoont Peepalkhoont,23.79580,74.56670,01-01-20,9.9
Rajasthan Pratapgarh Peepal Khoont Pipli Chowk Ghantiyali,23.77280,74.64280,01-01-20,9.2
Rajasthan Pratapgarh Peepal Khoont Suhagpura,23.91470,74.70720,01-01-20,4.7
Rajasthan Pratapgarh Pratapgarh Barawarda,24.18170,74.70280,01-01-20,1.1
Rajasthan Pratapgarh Pratapgarh Devgarh,24.03390,74.65860,01-01-20,2.7
Rajasthan Pratapgarh Pratapgarh Mokhampura,24.02420,74.87530,01-01-20,4.4
Rajasthan Pratapgarh Pratapgarh Pratapgarh,24.03530,74.78330,01-01-20,5.7
Rajasthan Pratapgarh Pratapgarh Punga Talab,24.07500,74.57500,01-01-20,2.6
Rajasthan Pratapgarh Pratapgarh Rajpuria,24.03330,74.97750,01-01-20,4.9
Rajasthan Rajsamand Amet Chattarpur,25.24140,73.95610,01-01-20,9.7
January month Depth to Water Level (In mbgl) Data of Unconfined Aquifer STATE_UT DISTRICT BLOCK VILLAGE LATITUDE LONGITUDE Date WL(mbgl) Rajasthan Rajsamand Amet Gugli,25.23330,73.88330,01-01-20,13.0
Rajasthan Rajsamand Amet Nadiawala,25.20280,73.86310,01-01-20,10.9
Rajasthan Rajsamand Bhim Baghana,25.50000,73.83860,01-01-20,1.5
Rajasthan Rajsamand Bhim Bali,25.83330,74.08330,01-01-20,2.7
Rajasthan Rajsamand Bhim Barar,25.66670,74.01670,01-01-20,4.6
Rajasthan Rajsamand Bhim Bhim,25.74330,74.07920,01-01-20,0.8
Rajasthan Rajsamand Bhim Dewair,25.42080,73.82220,01-01-20,2.0
Rajasthan Rajsamand Bhim Ghata,25.78330,74.18330,01-01-20,6.5
Rajasthan Rajsamand Bhim Sheron Ka Bala,25.85000,74.13330,01-01-20,0.8
Rajasthan Rajsamand Bhim Thikarwas,25.60000,73.98000,01-01-20,3.3
Rajasthan Rajsamand Khamnor Khamnor,24.91670,73.73330,01-01-20,6.0
Rajasthan Rajsamand Khamnor Odan,24.90000,73.81670,01-01-20,2.6
Rajasthan Rajsamand Kumbhalgarh Bhop Ji Ki Bhagal,25.25830,73.72080,01-01-20,9.9
Rajasthan Rajsamand Kumbhalgarh Dowas,25.03860,73.56670,01-01-20,2.9
Rajasthan Rajsamand Kumbhalgarh Gomti Chouraha,25.27830,73.78280,01-01-20,7.1
Rajasthan Rajsamand Kumbhalgarh Jhilwara,25.22720,73.67080,01-01-20,6.8
Rajasthan Rajsamand Kumbhalgarh Kalwana,25.10000,73.60000,01-01-20,3.9
Rajasthan Rajsamand Kumbhalgarh Kancholi,24.96000,73.55000,01-01-20,2.7
Rajasthan Rajsamand Kumbhalgarh Kelwara,25.10000,73.61330,01-01-20,4.5
Rajasthan Rajsamand Kumbhalgarh Kitela,25.34140,73.78060,01-01-20,4.6
Rajasthan Rajsamand Kumbhalgarh Mansingh Kagura,25.23810,73.78890,01-01-20,4.0
Rajasthan Rajsamand Railmagra Gavardi,24.90390,74.10000,01-01-20,7.4
Rajasthan Rajsamand Railmagra Khandel,25.11670,74.08330,01-01-20,5.2
Rajasthan Rajsamand Railmagra Oda,25.03330,74.00390,01-01-20,0.7
Rajasthan Rajsamand Railmagra Railmagra,25.03330,74.11670,01-01-20,4.7
Rajasthan Rajsamand Rajsamand Mokampura,25.13080,73.85000,01-01-20,1.9
Rajasthan Rajsamand Rajsamand Rajsamand,25.06670,73.88330,01-01-20,1.9
Rajasthan Salumbar Jhallara Deola,24.16670,74.05000,01-01-20,2.0
Rajasthan Salumbar Jhallara Kholri,24.07190,74.06310,01-01-20,1.7
Rajasthan Salumbar Salumbar Bassi,24.17190,73.98530,01-01-20,0.8
Rajasthan Salumbar Salumbar Gurel,24.33690,74.01860,01-01-20,8.3
Rajasthan Salumbar Salumbar Intalikhara,24.00580,73.95890,01-01-20,0.3
Rajasthan Salumbar Salumbar Khairka,24.29500,74.07500,01-01-20,1.7
Rajasthan Salumbar Salumbar Salumber,24.12830,74.04670,01-01-20,5.0
Rajasthan Salumbar Sarada Dingri,24.21670,73.86670,01-01-20,0.8
Rajasthan Salumbar Sarada Parshad,24.19330,73.70000,01-01-20,3.4
Rajasthan Salumbar Sarada Sarada,24.15000,73.83330,01-01-20,5.6
Rajasthan Salumbar Semari Semari,24.06470,73.85000,01-01-20,5.8
January month Depth to Water Level (In mbgl) Data of Unconfined Aquifer STATE_UT DISTRICT BLOCK VILLAGE LATITUDE LONGITUDE Date WL(mbgl) Rajasthan Sanchore Bagoda Khokagaon,25.35890,72.03080,01-01-20,57.9
Rajasthan Sanchore Chitalwana Hali Bao,24.99110,71.59390,01-01-20,1.9
Rajasthan Sanchore Raniwara Alri,24.94000,72.25500,01-01-20,17.2
Rajasthan Sanchore Raniwara Dhanwara,24.96750,72.20220,01-01-20,41.7
Rajasthan Sanchore Raniwara Hirpura,24.76780,72.11690,01-01-20,51.5
Rajasthan Sanchore Raniwara Kagmala(Kundanpura),24.86610,72.30000,01-01-20,26.5
Rajasthan Sanchore Raniwara Matriwara,24.70940,72.10940,01-01-20,60.9
Rajasthan Sanchore Raniwara Sewara,24.76500,72.02190,01-01-20,53.2
Rajasthan Sanchore Sanchore Hadetar,24.75220,71.82860,01-01-20,34.5
Rajasthan Sanchore Sanchore Sarnau,24.78030,71.93920,01-01-20,66.8
Rajasthan Sawai Madhopur Bonli Bhadoti,26.25280,76.38580,01-01-20,9.9
Rajasthan Sawai Madhopur Bonli Bonali,26.35420,76.25420,01-01-20,3.5
Rajasthan Sawai Madhopur Bonli Malarnachor,26.30560,76.38060,01-01-20,1.2
Rajasthan Sawai Madhopur Bonli Moral Tiwara,26.32920,76.49170,01-01-20,7.7
Rajasthan Sawai Madhopur Bonli Tond,26.36670,76.39670,01-01-20,0.9
Rajasthan Sawai Madhopur Chauth Ka Barwara Kushtala,25.96670,76.26670,01-01-20,5.7
Rajasthan Sawai Madhopur Khandar Bodal,25.93330,76.43330,01-01-20,4.9
Rajasthan Sawai Madhopur Khandar Chann,25.89580,76.48890,01-01-20,11.6
Rajasthan Sawai Madhopur Khandar Hindwar,25.89080,76.34780,01-01-20,9.9
Rajasthan Sawai Madhopur Khandar Khandar,26.02220,76.59440,01-01-20,3.2
Rajasthan Sawai Madhopur Khandar Kushlipura,25.92830,76.37140,01-01-20,8.2
Rajasthan Sawai Madhopur Khandar Phariya,25.91670,76.52890,01-01-20,9.0
Rajasthan Sawai Madhopur Sawai Madhopur Ranthambor,26.01670,76.45830,01-01-20,5.8
Rajasthan Sawai Madhopur Sawai Madhopur Surwal,26.08750,76.36110,01-01-20,4.3
Rajasthan Shahpura Jahazpur Amarwasi,25.70000,75.35420,01-01-20,0.8
Rajasthan Shahpura Jahazpur Bagudar,25.52050,75.12620,01-01-20,2.1
Rajasthan Shahpura Jahazpur Bhopalpura,25.63890,75.11530,01-01-20,3.5
Rajasthan Shahpura Jahazpur Borani,25.68330,75.33330,01-01-20,11.8
Rajasthan Shahpura Jahazpur Luhari Kallan,25.65280,75.38240,01-01-20,5.4
Rajasthan Shahpura Jahazpur Tithora Maffi,25.69000,75.12520,01-01-20,6.2
Rajasthan Shahpura Shahpura Bhojpur,25.45000,74.85710,01-01-20,1.3
Rajasthan Shahpura Shahpura Devariya,25.80180,74.87510,01-01-20,2.3
Rajasthan Shahpura Shahpura Dhikola,25.56500,74.82420,01-01-20,3.5
Rajasthan Shahpura Shahpura Kanchan-Kala,25.75560,74.90560,01-01-20,0.9
Rajasthan Shahpura Shahpura Rahad,25.69790,74.98660,01-01-20,1.2
Rajasthan Shahpura Shahpura Sopura,25.60420,74.90000,01-01-20,2.2
Rajasthan Shahpura Shahpura Taswaria Khurd,25.56110,74.80000,01-01-20,6.1
Rajasthan Sikar Danta Ramgarh Bai,27.31670,75.29500,01-01-20,17.7
January month Depth to Water Level (In mbgl) Data of Unconfined Aquifer STATE_UT DISTRICT BLOCK VILLAGE LATITUDE LONGITUDE Date WL(mbgl) Rajasthan Sikar Danta Ramgarh Karanpura,27.38750,75.05000,01-01-20,71.4
Rajasthan Sikar Danta Ramgarh Khatu Shyamji,27.36670,75.40000,01-01-20,32.1
Rajasthan Sikar Dhod Anokhu,27.50030,74.94140,01-01-20,72.4
Rajasthan Sikar Dhod Binjyasi,27.51610,74.89810,01-01-20,67.3
Rajasthan Sikar Dhod Dhod,27.50000,74.98330,01-01-20,80.3
Rajasthan Sikar Dhod Sabalpura,27.64330,75.10530,01-01-20,81.1
Rajasthan Sikar Fatehpur Balaran,27.91530,75.13530,01-01-20,57.6
Rajasthan Sikar Fatehpur Bibipur,27.89110,74.91280,01-01-20,44.2
Rajasthan Sikar Fatehpur Bikamsara,27.92970,74.89920,01-01-20,40.1
Rajasthan Sikar Fatehpur Dewas,28.05970,74.93780,01-01-20,36.0
Rajasthan Sikar Fatehpur Dhanadhan,28.09140,74.86360,01-01-20,34.9
Rajasthan Sikar Fatehpur Harsawa Bara,27.91500,74.99640,01-01-20,47.5
Rajasthan Sikar Fatehpur Ramsisar,28.07330,74.82310,01-01-20,35.1
Rajasthan Sikar Fatehpur Rohalsobhsar,28.05000,74.86670,01-01-20,36.0
Rajasthan Sikar Fatehpur Rookansar,28.14000,74.95970,01-01-20,31.3
Rajasthan Sikar Fatehpur Roru Badi_I,27.83920,74.89220,01-01-20,43.8
Rajasthan Sikar Fatehpur Roru Badi_Ii,27.83920,74.89220,01-01-20,43.9
Rajasthan Sikar Fatehpur Sekhiwas,27.86440,74.86140,01-01-20,42.1
Rajasthan Sikar Khandela Dhudhwalo Ka Bas,27.53810,75.45530,01-01-20,67.0
Rajasthan Sikar Lachhmangarh Bau,27.79170,75.11000,01-01-20,75.2
Rajasthan Sikar Lachhmangarh Chinchas,27.86810,75.01360,01-01-20,51.5
Rajasthan Sikar Lachhmangarh Datunjala,27.78750,74.97530,01-01-20,56.1
Rajasthan Sikar Lachhmangarh Garoda,27.71280,74.82110,01-01-20,44.1
Rajasthan Sikar Lachhmangarh Ghana,27.66250,74.89080,01-01-20,67.8
Rajasthan Sikar Lachhmangarh Jajod,27.79500,74.87360,01-01-20,52.9
Rajasthan Sikar Lachhmangarh Nechwa,27.61670,74.77000,01-01-20,44.4
Rajasthan Sikar Piprali Gokalpura,27.57920,75.18330,01-01-20,65.2
Rajasthan Sikar Piprali Goriya,27.55000,75.25390,01-01-20,33.7
Rajasthan Sikar Piprali Nani,27.61670,75.10000,01-01-20,58.7
Rajasthan Sikar Piprali Palsana,27.49530,75.35470,01-01-20,44.9
Rajasthan Sikar Piprali Piprali,27.64110,75.25000,01-01-20,70.6
Rajasthan Sirohi Abu Road Manpur,24.50440,72.75920,01-01-20,7.0
Rajasthan Sirohi Abu Road Mungthalla,24.48330,72.68330,01-01-20,8.6
Rajasthan Sirohi Abu Road Siyana,24.41670,72.76670,01-01-20,7.8
Rajasthan Sirohi Pindwara Virwara,24.84140,72.98750,01-01-20,5.4
Rajasthan Sirohi Reodar Anadara,24.63330,72.65000,01-01-20,17.2
Rajasthan Sirohi Reodar Jirawal,24.63890,72.49170,01-01-20,8.3
Rajasthan Sirohi Reodar Reodar,24.63330,72.53330,01-01-20,16.9
January month Depth to Water Level (In mbgl) Data of Unconfined Aquifer STATE_UT DISTRICT BLOCK VILLAGE LATITUDE LONGITUDE Date WL(mbgl) Rajasthan Sirohi Sheoganj Ambeshwarji,24.95560,72.89170,01-01-20,3.2
Rajasthan Sirohi Sheoganj Palri M,25.01530,72.92500,01-01-20,43.8
Rajasthan Sirohi Sheoganj Posaliya,25.08470,72.96670,01-01-20,27.8
Rajasthan Sirohi Sirohi Kalandri,24.92500,72.68750,01-01-20,11.1
Rajasthan Sirohi Sirohi Palri,24.86440,72.81750,01-01-20,6.5
Rajasthan Sirohi Sirohi Sirohi,24.88330,72.86670,01-01-20,8.5
Rajasthan Tonk Deoli Bantholi,25.88330,75.56670,01-01-20,10.0
Rajasthan Tonk Deoli Nagar,25.89580,75.83330,01-01-20,1.7
Rajasthan Tonk Deoli Ramthala,25.86390,75.28060,01-01-20,1.8
Rajasthan Tonk Malpura Dewal,26.23830,75.18750,01-01-20,4.7
Rajasthan Tonk Malpura Jaisinghpur,26.40860,75.49750,01-01-20,3.0
Rajasthan Tonk Malpura Malpura,26.28330,75.38330,01-01-20,6.4
Rajasthan Tonk Newai Niwai,26.36670,75.93330,01-01-20,17.4
Rajasthan Tonk Todaraisingh Hamirpur,26.18330,75.57500,01-01-20,2.5
Rajasthan Tonk Todaraisingh Todaraisingh,26.02250,75.48890,01-01-20,2.7
Rajasthan Tonk Tonk Arniyalmal,26.05830,75.80830,01-01-20,6.1
Rajasthan Tonk Tonk Ghans,26.05830,75.87500,01-01-20,4.8
Rajasthan Tonk Tonk Mahuva,25.99860,75.68330,01-01-20,6.4
Rajasthan Tonk Tonk Mehndwas,26.11080,75.72500,01-01-20,13.1
Rajasthan Tonk Tonk Rustamganj,26.09170,75.83330,01-01-20,2.0
Rajasthan Tonk Tonk Sohela,26.24170,75.85000,01-01-20,2.8
Rajasthan Tonk Uniara Aligarh,25.96670,76.07830,01-01-20,20.2
Rajasthan Tonk Uniara Dikoliya,25.97500,75.96610,01-01-20,2.2
Rajasthan Tonk Uniara Nayagaon,26.04080,75.88890,01-01-20,1.7
Rajasthan Tonk Uniara Sop,25.89170,76.17920,01-01-20,3.3
Rajasthan Udaipur Bargaon Chirwa,24.70000,73.75000,01-01-20,2.7
Rajasthan Udaipur Bargaon Kathar,24.89000,73.57000,01-01-20,1.5
Rajasthan Udaipur Bargaon Ramgiri(Badagaon),24.62500,73.68330,01-01-20,3.0
Rajasthan Udaipur Bargaon Sangath,24.82720,73.64560,01-01-20,9.0
Rajasthan Udaipur Bargaon Srimali Ki Karia,24.77640,73.63310,01-01-20,0.7
Rajasthan Udaipur Bhinder Bhatewar,24.61670,74.01280,01-01-20,6.3
Rajasthan Udaipur Bhinder Bhinder,24.50640,74.16690,01-01-20,11.6
Rajasthan Udaipur Bhinder Bhinder,24.50750,74.16670,01-01-20,7.4
Rajasthan Udaipur Bhinder Hariyab,24.54670,73.92250,01-01-20,9.3
Rajasthan Udaipur Bhinder Kanod,24.43330,74.26670,01-01-20,3.4
Rajasthan Udaipur Bhinder Kheroda,24.57970,74.05920,01-01-20,15.3
Rajasthan Udaipur Girwa Kanpur,24.57000,73.77640,01-01-20,2.6
Rajasthan Udaipur Girwa Kurabar,24.44830,73.99170,01-01-20,8.1
January month Depth to Water Level (In mbgl) Data of Unconfined Aquifer STATE_UT DISTRICT BLOCK VILLAGE LATITUDE LONGITUDE Date WL(mbgl) Rajasthan Udaipur Girwa Savina,24.50580,73.71390,01-01-20,3.0
Rajasthan Udaipur Girwa Sisarma,24.59080,73.65860,01-01-20,5.7
Rajasthan Udaipur Girwa Undri,24.49580,73.61250,01-01-20,0.5
Rajasthan Udaipur Gogunda Jaswantgarh,24.80000,73.46830,01-01-20,10.7
Rajasthan Udaipur Gogunda Padawali,24.61250,73.39250,01-01-20,4.2
Rajasthan Udaipur Gogunda Punawali,24.87810,73.42920,01-01-20,4.0
Rajasthan Udaipur Kherwara Kherwara,23.98330,73.60110,01-01-20,5.6
Rajasthan Udaipur Kherwara Neecha Talab,24.07530,73.43330,01-01-20,2.1
Rajasthan Udaipur Mavli Gadoli,24.75000,73.97830,01-01-20,2.6
Rajasthan Udaipur Mavli Mavli,24.78330,73.98330,01-01-20,12.6
Rajasthan Udaipur Phalasiya Amalia,24.22890,73.35420,01-01-20,3.4
Rajasthan Udaipur Phalasiya Garanwas,24.15000,73.35000,01-01-20,1.3
Rajasthan Udaipur Phalasiya Ghori Mari,24.30580,73.38780,01-01-20,8.5
Rajasthan Udaipur Phalasiya Luniyara,24.35560,73.38560,01-01-20,2.7
Rajasthan Udaipur Phalasiya Som,24.17080,73.34310,01-01-20,4.4
Rajasthan Udaipur Rishbhdeo Kalayanpura,24.00140,73.75830,01-01-20,4.3
Tamil Nadu Ariyalur Andimadam Andimadam,11.33860,79.37750,10-01-20,6.6
Tamil Nadu Ariyalur Andimadam Ilaiyur,11.23330,79.31500,10-01-20,2.3
Tamil Nadu Ariyalur Andimadam Kattathur,11.30690,79.34940,10-01-20,1.7
Tamil Nadu Ariyalur Andimadam Koovathur,11.29780,79.37750,10-01-20,2.7
Tamil Nadu Ariyalur Andimadam Olaiyur,11.41000,79.33280,10-01-20,2.2
Tamil Nadu Ariyalur Andimadam Rangiyam,11.38330,79.38330,10-01-20,3.5
Tamil Nadu Ariyalur Jayamkondam Jayakondasolapuram,11.21280,79.36440,10-01-20,2.6
Tamil Nadu Ariyalur Jayamkondam Pappakudi,11.28530,79.49000,10-01-20,2.2
Tamil Nadu Ariyalur Jayamkondam Periyavalayam,11.21110,79.39580,10-01-20,2.0
Tamil Nadu Ariyalur Jayamkondam Suriyamanal,11.19810,79.32720,10-01-20,1.6
Tamil Nadu Ariyalur T. Palur Manakethi,11.13940,79.23780,10-01-20,3.1
Tamil Nadu Ariyalur Thirumanur Kelaiyur,11.03330,79.05000,10-01-20,1.1
Tamil Nadu Chengalpattu Chithamur Sunambedu,12.25830,79.90830,10-01-20,1.8
Tamil Nadu Chengalpattu Kattankolathur Chengalpattu,12.70000,79.97500,10-01-20,1.7
Tamil Nadu Chengalpattu Kattankolathur Kozapakkam,12.86860,80.11030,10-01-20,1.9
Tamil Nadu Chengalpattu Kundrathur Anagaputthur,12.98330,80.12500,10-01-20,4.0
Tamil Nadu Chengalpattu Kundrathur Mannivakkam,12.89190,80.06890,10-01-20,0.5
Tamil Nadu Chengalpattu Kundrathur Nanthivaram,12.84170,80.06670,10-01-20,11.7
Tamil Nadu Chengalpattu Kundrathur Thiruneermalai,12.96280,80.11310,10-01-20,6.5
Tamil Nadu Chengalpattu Madurantakam Karunkuzi,12.52920,79.90000,10-01-20,5.5
Tamil Nadu Chengalpattu Madurantakam Porur,12.34720,79.90830,10-01-20,3.4
Tamil Nadu Chengalpattu St.Thomas Mount Chitlapakkam,12.93330,80.13330,10-01-20,4.1
January month Depth to Water Level (In mbgl) Data of Unconfined Aquifer STATE_UT DISTRICT BLOCK VILLAGE LATITUDE LONGITUDE Date WL(mbgl) Tamil Nadu Chengalpattu St.Thomas Mount Chitlapakkam,12.94060,80.13750,10-01-20,2.2
Tamil Nadu Chengalpattu St.Thomas Mount Hasthinapuram,12.94310,80.14780,10-01-20,1.8
Tamil Nadu Chengalpattu St.Thomas Mount Irumbuliyur,12.91670,80.10830,10-01-20,1.5
Tamil Nadu Chengalpattu St.Thomas Mount Jameen Pallavaram,12.95140,80.13920,10-01-20,1.2
Tamil Nadu Chengalpattu St.Thomas Mount Madambakkam,12.88750,80.14860,10-01-20,2.1
Tamil Nadu Chengalpattu St.Thomas Mount Moovarasampattu,12.96220,80.18420,10-01-20,3.6
Tamil Nadu Chengalpattu St.Thomas Mount Nanmangalam,12.92830,80.17080,10-01-20,2.1
Tamil Nadu Chengalpattu St.Thomas Mount St.Thomas Mount,12.97280,80.15440,10-01-20,2.0
Tamil Nadu Chengalpattu St.Thomas Mount Thirisulam,12.97220,80.17360,10-01-20,3.4
Tamil Nadu Chengalpattu St.Thomas Mount Thiruneermalai,12.95750,80.12610,10-01-20,0.8
Tamil Nadu Chengalpattu St.Thomas Mount Vengaivaasal,12.90030,80.17110,10-01-20,6.9
Tamil Nadu Chengalpattu Thiruporur Thirupporur,12.72920,80.19170,10-01-20,1.5
Tamil Nadu Chengalpattu Tirukkalukunram Mamallapuram,12.62500,80.19170,10-01-20,3.1
Tamil Nadu Chengalpattu Tirukkalukunram Puthupattinam,12.52030,80.15170,10-01-20,2.5
Tamil Nadu Chennai Chennai Egmore,13.07470,80.26250,10-01-20,1.6
Tamil Nadu Chennai Chennai Kodambakkam,13.04170,80.20830,10-01-20,3.3
Tamil Nadu Chennai Chennai Mylapore,13.01920,80.26780,10-01-20,1.5
Tamil Nadu Chennai Chennai Mylapore,13.02500,80.25830,10-01-20,4.0
Tamil Nadu Chennai Chennai Perambur,13.10000,80.25000,10-01-20,0.7
Tamil Nadu Chennai Chennai Purasawalkam,13.08330,80.27080,10-01-20,5.0
Tamil Nadu Chennai Chennai Tondiarpet,13.10560,80.28140,10-01-20,8.1
Tamil Nadu Chennai Chennai Tondiarpet,13.11670,80.27500,10-01-20,7.8
Tamil Nadu Chennai Chennai Triplicane,13.05560,80.28140,10-01-20,3.9
Tamil Nadu Chennai Chennai Urur,13.00140,80.27000,10-01-20,6.9
Tamil Nadu Chennai Kundrathur Madanandapuram,13.02250,80.15330,10-01-20,3.8
Tamil Nadu Chennai Puzhal Kadirvedu,13.15000,80.20000,10-01-20,3.8
Tamil Nadu Chennai Puzhal Korattur,13.13670,80.16940,10-01-20,3.2
Tamil Nadu Chennai Thomas Malai Chemmancheri,12.86330,80.22610,10-01-20,2.2
Tamil Nadu Chennai Thomas Malai Cholinganallur,12.90000,80.23330,10-01-20,0.7
Tamil Nadu Chennai Thomas Malai Cholinganallur,12.90190,80.24940,10-01-20,2.2
Tamil Nadu Chennai Thomas Malai Palavanthangal,13.00420,80.18750,10-01-20,2.7
Tamil Nadu Chennai Thomas Malai Palavanthangal,13.00720,80.19780,10-01-20,2.6
Tamil Nadu Chennai Thomas Malai Utthandi,12.86940,80.24720,10-01-20,3.2
Tamil Nadu Chennai Villivakkam Ambattur,13.11170,80.15920,10-01-20,3.6
Tamil Nadu Chennai Villivakkam Mugapair,13.08330,80.18750,10-01-20,4.5
Tamil Nadu Chennai Villivakkam Valasaravakkam,13.03970,80.17890,10-01-20,3.0
Tamil Nadu Coimbatore Anamalai Marchanaickenpalayam,10.63530,76.94110,10-01-20,2.0
Tamil Nadu Coimbatore Annur Annur,11.23330,77.10830,10-01-20,22.4
January month Depth to Water Level (In mbgl) Data of Unconfined Aquifer STATE_UT DISTRICT BLOCK VILLAGE LATITUDE LONGITUDE Date WL(mbgl) Tamil Nadu Coimbatore Annur Kattampatty,11.17580,77.05750,10-01-20,28.1
Tamil Nadu Coimbatore Annur Kuppanur,11.29830,77.07890,10-01-20,5.4
Tamil Nadu Coimbatore Karamadai Karamadai,11.25580,76.93470,10-01-20,6.5
Tamil Nadu Coimbatore Karamadai Mettupalayam,11.30000,76.94720,10-01-20,9.6
Tamil Nadu Coimbatore Kinathukadavu Kinthukadavu,10.81670,77.01670,10-01-20,4.9
Tamil Nadu Coimbatore Kinathukadavu Periya Negamam,10.72920,77.09170,10-01-20,2.8
Tamil Nadu Coimbatore Kinathukadavu Pottayandipuram,10.80830,76.95830,10-01-20,5.3
Tamil Nadu Coimbatore Kinathukadavu Sozhanur,10.73330,77.02920,10-01-20,3.7
Tamil Nadu Coimbatore Madukkarai Ettimadai,10.87500,76.90000,10-01-20,9.8
Tamil Nadu Coimbatore Madukkarai Madukarai,10.90830,76.96670,10-01-20,10.8
Tamil Nadu Coimbatore PeriyanayakkanpalayamAupperpalayam,11.04140,77.00060,10-01-20,4.1
Tamil Nadu Coimbatore PeriyanayakkanpalayamBillichi,11.20690,76.99220,10-01-20,15.9
Tamil Nadu Coimbatore PeriyanayakkanpalayamGoundenpalayam,11.04190,76.94190,10-01-20,4.3
Tamil Nadu Coimbatore PeriyanayakkanpalayamVadavalli,11.03140,76.88440,10-01-20,57.1
Tamil Nadu Coimbatore Pollachi North Nalluthukuzhuli,10.67500,76.93750,10-01-20,4.0
Tamil Nadu Coimbatore Pollachi North Thalakkarai,10.69580,76.93750,10-01-20,2.7
Tamil Nadu Coimbatore Pollachi South T. Kottampatty,10.66110,77.00000,10-01-20,0.8
Tamil Nadu Coimbatore Sarcarsamakulam Saravanmpatty,11.06940,77.00140,10-01-20,12.6
Tamil Nadu Coimbatore Sarcarsamakulam Saravanmpatty,11.07500,77.00140,10-01-20,20.0
Tamil Nadu Coimbatore Sulur Karumathampatty,11.08750,77.17920,10-01-20,1.8
Tamil Nadu Coimbatore Sulur Sulur,11.02500,77.12500,10-01-20,1.3
Tamil Nadu Coimbatore Thondamuthur Kuniamuthur,10.95420,76.95000,10-01-20,15.6
Tamil Nadu Coimbatore Thondamuthur Kurichy,10.96670,76.98330,10-01-20,4.4
Tamil Nadu Coimbatore Thondamuthur Singanallur,10.99640,77.02080,10-01-20,3.3
Tamil Nadu Coimbatore Thondamuthur Thelungupalayam,10.98330,76.92280,10-01-20,5.8
Tamil Nadu Coimbatore Thondamuthur Vadavalli,11.02500,76.90830,10-01-20,42.8
Tamil Nadu Cuddalore Cuddalore Thiyagavalli,11.63920,79.74720,10-01-20,0.7
Tamil Nadu Cuddalore Kammapuram Gangaikondan,11.55830,79.48330,10-01-20,3.2
Tamil Nadu Cuddalore Kammapuram Pudhukoraipettai,11.51860,79.36970,10-01-20,1.8
Tamil Nadu Cuddalore Kattumannarkoil Ma.Arasur,11.26670,79.62080,10-01-20,3.9
Tamil Nadu Cuddalore Kattumannarkoil Udaiyargudi,11.28720,79.55170,10-01-20,1.1
Tamil Nadu Cuddalore Komaratchi Veeranatham,11.30580,79.59390,10-01-20,2.0
Tamil Nadu Cuddalore Kurinjipadi Alappakkam,11.60110,79.71890,10-01-20,1.8
Tamil Nadu Cuddalore Kurinjipadi Kottagam,11.52220,79.52560,10-01-20,0.7
Tamil Nadu Cuddalore Kurinjipadi Kundiamallur North,11.52690,79.65170,10-01-20,1.7
Tamil Nadu Cuddalore Kurinjipadi Parvathipuram,11.53750,79.54170,10-01-20,3.1
Tamil Nadu Cuddalore Kurinjipadi Puliyur,11.64750,79.63920,10-01-20,6.2
Tamil Nadu Cuddalore Kurinjipadi Sepalanatham,11.52940,79.53110,10-01-20,3.5
January month Depth to Water Level (In mbgl) Data of Unconfined Aquifer STATE_UT DISTRICT BLOCK VILLAGE LATITUDE LONGITUDE Date WL(mbgl) Tamil Nadu Cuddalore Kurinjipadi Serakuppam,11.53940,79.59140,10-01-20,2.3
Tamil Nadu Cuddalore Kurinjipadi Serakuppam,11.56250,79.59170,10-01-20,2.3
Tamil Nadu Cuddalore Kurinjipadi T.Palayam,11.60670,79.63500,10-01-20,0.9
Tamil Nadu Cuddalore Kurinjipadi Terkumelur,11.58920,79.52750,10-01-20,1.8
Tamil Nadu Cuddalore Kurinjipadi Theerthanagiri,11.56920,79.67890,10-01-20,1.6
Tamil Nadu Cuddalore Kurinjipadi Thenkuthu,11.58190,79.55330,10-01-20,1.7
Tamil Nadu Cuddalore Kurinjipadi Thiruchopuram,11.61640,79.74140,10-01-20,4.3
Tamil Nadu Cuddalore Kurinjipadi Vadakuthu,11.61750,79.55390,10-01-20,12.6
Tamil Nadu Cuddalore Kurinjipadi Vegakollai,11.66860,79.58190,10-01-20,6.6
Tamil Nadu Cuddalore Mangalur M.Podayur,11.48170,79.04580,10-01-20,4.7
Tamil Nadu Cuddalore Mangalur Ramanatham,11.40830,79.00830,10-01-20,4.0
Tamil Nadu Cuddalore Melbhuvanagiri Nangudi,11.41330,79.52060,10-01-20,5.4
Tamil Nadu Cuddalore Nallur Veppur,11.53220,79.12390,10-01-20,1.6
Tamil Nadu Cuddalore Parangipettai Ariyakozhtti,11.48940,79.71560,10-01-20,0.9
Tamil Nadu Cuddalore Parangipettai C.Manambadi,11.44580,79.76390,10-01-20,1.3
Tamil Nadu Cuddalore Parangipettai Parangipettai,11.49170,79.75420,10-01-20,1.2
Tamil Nadu Cuddalore Vriddhachalam Kavanai,11.51670,79.33330,10-01-20,12.7
Tamil Nadu Cuddalore Vriddhachalam Ko. Boovanur,11.60830,79.31670,10-01-20,1.2
Tamil Nadu Cuddalore Vriddhachalam Nallur,11.56830,79.19000,10-01-20,7.1
Tamil Nadu Dharmapuri Dharmapuri Anasagaram,12.12920,78.17220,10-01-20,8.2
Tamil Nadu Dharmapuri Dharmapuri Settikarai,12.14610,78.17330,10-01-20,4.5
Tamil Nadu Dharmapuri Dharmapuri Thippireddihalli,12.00000,78.25000,10-01-20,8.4
Tamil Nadu Dharmapuri Dharmapuri Virupakshipuram,12.11720,78.15310,10-01-20,7.9
Tamil Nadu Dharmapuri Harur A.Pallipatti,11.94030,78.40170,10-01-20,11.8
Tamil Nadu Dharmapuri Harur Harur,12.04170,78.48330,10-01-20,5.2
Tamil Nadu Dharmapuri Harur Harur,12.05140,78.48330,10-01-20,13.5
Tamil Nadu Dharmapuri Harur Iachchambadi,12.11280,78.49420,10-01-20,8.9
Tamil Nadu Dharmapuri Harur Irumattur,12.26110,78.30190,10-01-20,8.9
Tamil Nadu Dharmapuri Harur Kottapatty,11.97780,78.66250,10-01-20,18.4
Tamil Nadu Dharmapuri Harur Mondukuli,12.09750,78.62890,10-01-20,5.1
Tamil Nadu Dharmapuri Harur Pudupatti,11.96670,78.41670,10-01-20,14.3
Tamil Nadu Dharmapuri Harur Tammichettipatti,12.10810,78.41280,10-01-20,16.6
Tamil Nadu Dharmapuri Harur Theerthamalai,12.10170,78.58920,10-01-20,6.2
Tamil Nadu Dharmapuri Morappur Gobinathampatti,12.13310,78.31970,10-01-20,7.9
Tamil Nadu Dharmapuri Morappur Hunisinahalli,12.05250,78.28060,10-01-20,16.1
Tamil Nadu Dharmapuri Morappur Ichchambadi,12.20170,78.35440,10-01-20,16.7
Tamil Nadu Dharmapuri Morappur Jakkupatti,12.19420,78.29500,10-01-20,12.3
Tamil Nadu Dharmapuri Morappur Maniyabadi,12.14170,78.29170,10-01-20,4.6
January month Depth to Water Level (In mbgl) Data of Unconfined Aquifer STATE_UT DISTRICT BLOCK VILLAGE LATITUDE LONGITUDE Date WL(mbgl) Tamil Nadu Dharmapuri Morappur Maniyabadi,12.14310,78.28440,10-01-20,3.7
Tamil Nadu Dharmapuri Morappur Rasalampatti,12.12470,78.39890,10-01-20,8.6
Tamil Nadu Dharmapuri Nallampalli Nattahalli,12.13330,78.05830,10-01-20,3.8
Tamil Nadu Dharmapuri Nallampalli Toppur Kanigarahalli,11.94030,78.05940,10-01-20,11.4
Tamil Nadu Dharmapuri Nallampalli Toppur Kanigarahalli,11.94330,78.04810,10-01-20,8.2
Tamil Nadu Dharmapuri Pappireddipatty Molaiyanur,11.91670,78.33610,10-01-20,3.1
Tamil Nadu Dharmapuri Pennagaram Konangihalli,12.13330,77.98330,10-01-20,3.2
Tamil Nadu Dharmapuri Pennagaram Pennagaram,12.12500,77.90000,10-01-20,8.0
Tamil Nadu Dharmapuri Pennagaram Pennagaram R.F,12.12360,77.80830,10-01-20,3.4
Tamil Nadu Dindigul Athoor Thoppampatty,10.25830,77.92500,10-01-20,4.2
Tamil Nadu Dindigul Dindigul Balakrishnapuram,10.35140,77.99440,10-01-20,1.4
Tamil Nadu Dindigul Dindigul Dindigul,10.35830,77.97500,10-01-20,2.1
Tamil Nadu Dindigul Dindigul Dindigul,10.36670,77.97080,10-01-20,2.6
Tamil Nadu Dindigul Dindigul Seelapadi,10.37560,77.98530,10-01-20,2.9
Tamil Nadu Dindigul Dindigul Seelapadi,10.40720,78.00250,10-01-20,7.6
Tamil Nadu Dindigul Guziliamparai Alambadi,10.75830,78.03330,10-01-20,13.3
Tamil Nadu Dindigul Guziliamparai Koombur,10.67140,77.99220,10-01-20,9.1
Tamil Nadu Dindigul Guziliamparai Palayam,10.68060,78.11560,10-01-20,2.8
Tamil Nadu Dindigul Guziliamparai Palayam,10.72720,78.13920,10-01-20,3.3
Tamil Nadu Dindigul Kodaikanal Kodaikanal,10.23470,77.48330,10-01-20,5.3
Tamil Nadu Dindigul Kodaikanal Kodaikanal,10.26810,77.54170,10-01-20,0.9
Tamil Nadu Dindigul Kodaikanal Pannaikadu,10.26830,77.61780,10-01-20,1.1
Tamil Nadu Dindigul Nattam Natham,10.22220,78.24720,10-01-20,6.5
Tamil Nadu Dindigul Oddanchatram Oddanchatram,10.48750,77.75420,10-01-20,11.3
Tamil Nadu Dindigul Oddanchatram Palakkanoothu,10.46580,77.80560,10-01-20,5.2
Tamil Nadu Dindigul Palani Kanakkanpatty,10.47500,77.56670,10-01-20,4.8
Tamil Nadu Dindigul Palani Palani,10.43330,77.51250,10-01-20,2.7
Tamil Nadu Dindigul Palani Virupatchi,10.46190,77.70610,10-01-20,5.0
Tamil Nadu Dindigul Reddiyarchatiram Kamatchipuram,10.41670,77.86110,10-01-20,6.1
Tamil Nadu Dindigul Shanarpatti Vengamanoothu,10.35830,78.10000,10-01-20,9.8
Tamil Nadu Dindigul Thoppampatti Chatrapatty,10.46670,77.65830,10-01-20,12.5
Tamil Nadu Dindigul Thoppampatti Thummalapatty,10.53330,77.52080,10-01-20,7.4
Tamil Nadu Dindigul Thoppampatti Velampatty,10.59000,77.52690,10-01-20,7.4
Tamil Nadu Dindigul Vadamadurai Thamaraipadi,10.40530,78.04530,10-01-20,7.4
Tamil Nadu Dindigul Vedasandur Nagayakottai,10.54580,78.07190,10-01-20,9.2
Tamil Nadu Dindigul Vedasandur Nathapatty,10.54750,77.97110,10-01-20,7.6
Tamil Nadu Dindigul Vedasandur Palapatty,10.59830,77.97560,10-01-20,15.6
Tamil Nadu Erode Ammapet Ammapettai,11.61940,77.74440,10-01-20,4.3
January month Depth to Water Level (In mbgl) Data of Unconfined Aquifer STATE_UT DISTRICT BLOCK VILLAGE LATITUDE LONGITUDE Date WL(mbgl) Tamil Nadu Erode Ammapet Ilipulli,11.64140,77.68220,10-01-20,15.9
Tamil Nadu Erode Ammapet Ilipulli,11.64170,77.68330,10-01-20,17.9
Tamil Nadu Erode Ammapet Ilipulli,11.65890,77.68470,10-01-20,20.6
Tamil Nadu Erode Ammapet Kesarimangalam,11.53670,77.70970,10-01-20,6.9
Tamil Nadu Erode Ammapet Kurichi,11.57310,77.69500,10-01-20,2.7
Tamil Nadu Erode Ammapet Kurichi,11.57330,77.69390,10-01-20,3.5
Tamil Nadu Erode Ammapet Mugasipudur,11.59190,77.66610,10-01-20,11.2
Tamil Nadu Erode Ammapet Vellitiruppur,11.62080,77.63330,10-01-20,3.2
Tamil Nadu Erode Andiyur Athani,11.52420,77.51670,10-01-20,11.7
Tamil Nadu Erode Andiyur Bargur,11.80830,77.53330,10-01-20,8.3
Tamil Nadu Erode Andiyur Brammadesam,11.54530,77.59530,10-01-20,9.0
Tamil Nadu Erode Andiyur Kettisamudram,11.59440,77.58750,10-01-20,7.3
Tamil Nadu Erode Bhavani Bhavani,11.48470,77.69170,10-01-20,4.4
Tamil Nadu Erode Bhavani Kavindapadi,11.42220,77.55830,10-01-20,3.5
Tamil Nadu Erode Bhavani Kavindapadi,11.43330,77.55830,10-01-20,3.0
Tamil Nadu Erode Bhavani Oricheri,11.46500,77.60580,10-01-20,5.5
Tamil Nadu Erode Bhavani Punnam,11.50720,77.61390,10-01-20,3.5
Tamil Nadu Erode Bhavani Punnam,11.52000,77.60330,10-01-20,13.3
Tamil Nadu Erode Bhavani Varadhanallur,11.49330,77.69860,10-01-20,3.5
Tamil Nadu Erode Bhavanisagar Punjai Puliampatti,11.35000,77.16670,10-01-20,5.4
Tamil Nadu Erode Bhavanisagar Punjai Puliampatti,11.35280,77.16940,10-01-20,6.2
Tamil Nadu Erode Bhavanisagar Thoppampalayam,11.45830,77.13330,10-01-20,4.8
Tamil Nadu Erode Chennimalai Chennimalai -B,11.16250,77.59720,10-01-20,6.2
Tamil Nadu Erode Chennimalai Ingur,11.22580,77.58140,10-01-20,4.3
Tamil Nadu Erode Chennimalai Thenmugam Vellode,11.23610,77.65860,10-01-20,2.1
Tamil Nadu Erode Erode Elavamalai,11.42830,77.64920,10-01-20,0.7
Tamil Nadu Erode Erode Erode,11.33330,77.73330,10-01-20,6.6
Tamil Nadu Erode Erode Periyapuliyur,11.40220,77.63750,10-01-20,4.0
Tamil Nadu Erode Erode Suriyampalayam,11.39170,77.67780,10-01-20,6.1
Tamil Nadu Erode Gopichettipalaiyam Veerapandi,11.45000,77.45000,10-01-20,9.0
Tamil Nadu Erode Kodumudi A. Unjalur,11.12500,77.87500,10-01-20,3.6
Tamil Nadu Erode Kodumudi Kodumudi,11.08190,77.88530,10-01-20,3.4
Tamil Nadu Erode Kodumudi Punjaikolanalli,11.17440,77.85670,10-01-20,0.9
Tamil Nadu Erode Modakurichi Elumathur,11.19440,77.77920,10-01-20,2.4
Tamil Nadu Erode Modakurichi Punjai Kalamangalam,11.24640,77.83610,10-01-20,2.2
Tamil Nadu Erode Modakurichi Vadugapatti,11.16250,77.70000,10-01-20,5.0
Tamil Nadu Erode Nambiyur Nambiyur,11.34470,77.31890,10-01-20,7.6
Tamil Nadu Erode Nambiyur Nichampalayam,11.33330,77.41390,10-01-20,16.9
January month Depth to Water Level (In mbgl) Data of Unconfined Aquifer STATE_UT DISTRICT BLOCK VILLAGE LATITUDE LONGITUDE Date WL(mbgl) Tamil Nadu Erode Nambiyur Ozhalakkoil,11.29030,77.33060,10-01-20,39.5
Tamil Nadu Erode Perundurai Karumandisellipalayam,11.27920,77.58470,10-01-20,16.8
Tamil Nadu Erode Perundurai Moongilpalayam,11.24170,77.50420,10-01-20,22.8
Tamil Nadu Erode Perundurai Pandiyampalayam,11.39830,77.51750,10-01-20,10.5
Tamil Nadu Erode Perundurai Pethampalayam -B,11.33610,77.58610,10-01-20,4.6
Tamil Nadu Erode Perundurai Ponmudi,11.26080,77.53030,10-01-20,24.3
Tamil Nadu Erode Satyamangalam Indiampalayam,11.45000,77.26940,10-01-20,2.7
Tamil Nadu Erode Satyamangalam Kavilipalayam,11.37920,77.22780,10-01-20,3.9
Tamil Nadu Erode Satyamangalam Nambiyur,11.36060,77.32080,10-01-20,10.5
Tamil Nadu Erode Satyamangalam Rangasamudram,11.49720,77.23610,10-01-20,13.2
Tamil Nadu Erode Satyamangalam Rangasamudram,11.50280,77.24720,10-01-20,8.3
Tamil Nadu Erode Satyamangalam Ukkaram,11.42560,77.24110,10-01-20,2.1
Tamil Nadu Erode Talavadi Guttiyalaitur Reserved Forest,11.54720,77.14170,10-01-20,7.6
Tamil Nadu Erode Talavadi Ikkarai Thathapalli,11.48330,77.15000,10-01-20,6.9
Tamil Nadu Erode Talavadi Ikkarai Thathapalli,11.48860,77.15640,10-01-20,7.8
Tamil Nadu Erode Talavadi Ikkarai Thathapalli,11.48860,77.15640,10-01-20,8.2
Tamil Nadu Erode Talavadi Rajannagar,11.52890,77.14220,10-01-20,8.0
Tamil Nadu Erode Talavadi Rajannagar,11.54170,77.17610,10-01-20,14.4
Tamil Nadu Erode Talavadi Thalavadi,11.77330,77.00390,10-01-20,14.3
Tamil Nadu Erode Talavadi Thalavadi,11.77560,77.02310,10-01-20,3.9
Tamil Nadu Erode ThoockanaickenpalaiyamArakkankottai,11.49690,77.34310,10-01-20,11.6
Tamil Nadu Erode ThoockanaickenpalaiyamNanjai Thuraiyampalayam,11.50420,77.40830,10-01-20,6.2
Tamil Nadu Erode ThoockanaickenpalaiyamPunjai Thuraiyampalayam,11.51310,77.42330,10-01-20,8.1
Tamil Nadu Erode ThoockanaickenpalaiyamThadapalli Gramam,11.45560,77.33940,10-01-20,5.8
Tamil Nadu Erode ThoockanaickenpalaiyamVeerapandi,11.45830,77.44580,10-01-20,7.0
Tamil Nadu Kallakurichi Chinnasalem Kachirayapalaiyam,11.76720,78.87000,10-01-20,4.0
Tamil Nadu Kallakurichi Chinnasalem Takarai R.F.,11.73610,78.85000,10-01-20,5.2
Tamil Nadu Kallakurichi Kallakkurichi Indali,11.68030,78.91920,10-01-20,5.5
Tamil Nadu Kallakurichi Kallakkurichi Indali,11.69530,78.93470,10-01-20,6.4
Tamil Nadu Kallakurichi Kallakkurichi Kallakurichi,11.74170,78.96670,10-01-20,3.9
Tamil Nadu Kallakurichi Kallakkurichi Siruvathur,11.62500,78.95000,10-01-20,4.6
Tamil Nadu Kallakurichi Kallakkurichi Thachur,11.70560,78.97000,10-01-20,3.0
Tamil Nadu Kallakurichi Kalrayanhills Mundiyur,11.74580,78.74580,10-01-20,9.4
Tamil Nadu Kallakurichi Rishivandiam Rishivanthiyam,11.80000,79.09170,10-01-20,8.1
Tamil Nadu Kallakurichi Sankarapuram Kattuvannanchur,11.88330,78.91670,10-01-20,1.0
Tamil Nadu Kallakurichi Sankarapuram Kattuvannanchur,11.88330,78.91670,10-01-20,2.3
Tamil Nadu Kallakurichi Sankarapuram Mallapuram R.F,11.93830,78.88610,10-01-20,10.2
Tamil Nadu Kallakurichi Sankarapuram Vadachettiyanthal,11.85920,78.93140,10-01-20,5.1
January month Depth to Water Level (In mbgl) Data of Unconfined Aquifer STATE_UT DISTRICT BLOCK VILLAGE LATITUDE LONGITUDE Date WL(mbgl) Tamil Nadu Kallakurichi Thiagadurgam Periyamampattu,11.73060,79.09170,10-01-20,3.7
Tamil Nadu Kallakurichi Thiagadurgam Vazhavandhankuppam,11.72190,79.12890,10-01-20,2.7
Tamil Nadu Kallakurichi Thiagadurgam Vilakkur,11.72000,79.07780,10-01-20,5.1
Tamil Nadu Kallakurichi Tirukkoyilur Kottakam,11.97500,79.13330,10-01-20,9.4
Tamil Nadu Kallakurichi Tirukkoyilur Mudiyanoor,11.94580,79.13780,10-01-20,7.1
Tamil Nadu Kallakurichi Tirukkoyilur Putthagaram,11.99860,79.16580,10-01-20,2.8
Tamil Nadu Kallakurichi Tirukkoyilur Thirukoilur,11.95830,79.21670,10-01-20,1.6
Tamil Nadu Kallakurichi Tirunavalur Senkurichi,11.70420,79.33170,10-01-20,2.3
Tamil Nadu Kallakurichi Tirunavalur Ulunthoor,11.68750,79.30000,10-01-20,1.7
Tamil Nadu Kallakurichi Ulundurpet A.Kurumpoor,11.66110,79.29440,10-01-20,5.2
Tamil Nadu Kallakurichi Ulundurpet Aasanur,11.62500,79.19440,10-01-20,2.2
Tamil Nadu Kallakurichi Ulundurpet Pidagam,11.71670,79.17920,10-01-20,1.9
Tamil Nadu Kancheepuram Kanchipuram Kilkathirpur,12.83470,79.67220,10-01-20,3.9
Tamil Nadu Kancheepuram Kanchipuram Vishnu Kanchi - A,12.83330,79.70830,10-01-20,6.2
Tamil Nadu Kancheepuram Kunnattur Kerukampakkam,13.01530,80.13670,10-01-20,3.5
Tamil Nadu Kancheepuram Kunnattur Maganiyam R.F,12.91250,80.01250,10-01-20,2.4
Tamil Nadu Kancheepuram Kunnattur Mangadu -A,13.02470,80.10890,10-01-20,3.1
Tamil Nadu Kancheepuram Kunnattur Manimangalam A,12.92750,80.04280,10-01-20,2.3
Tamil Nadu Kancheepuram Sriperumbudur Panruti B,12.85060,79.91190,10-01-20,2.8
Tamil Nadu Kancheepuram Sriperumbudur Pondur B,12.93330,79.93330,10-01-20,1.9
Tamil Nadu Kancheepuram Uttiramerur Rettai Mangalam,12.63330,79.83330,10-01-20,2.2
Tamil Nadu Kancheepuram Uttiramerur Thandari,12.60830,79.66670,10-01-20,1.3
Tamil Nadu Kancheepuram Uttiramerur Vedapalayam,12.60830,79.73750,10-01-20,4.4
Tamil Nadu Kancheepuram Walajabad Angampakkam,12.77500,79.82500,10-01-20,3.3
Tamil Nadu Kanniyakumari Agastiswaram Kanniyakumari,8.08333,77.55000,10-01-20,1.9
Tamil Nadu Kanniyakumari Agastiswaram Kanniyakumari,8.10278,77.54390,10-01-20,3.4
Tamil Nadu Kanniyakumari Killiyoor Mathicode,8.22222,77.25830,10-01-20,9.1
Tamil Nadu Kanniyakumari Kurunthancode Colachel A,8.17778,77.26250,10-01-20,11.4
Tamil Nadu Kanniyakumari Kurunthancode Thingalnagar,8.19167,77.29530,10-01-20,7.2
Tamil Nadu Kanniyakumari Kurunthancode Villukkuri A,8.22500,77.35830,10-01-20,6.2
Tamil Nadu Kanniyakumari Munchira Nalloor,8.30972,77.21420,10-01-20,13.1
Tamil Nadu Kanniyakumari Munchira Nalloor,8.30972,77.21420,10-01-20,8.2
Tamil Nadu Kanniyakumari Rajakkamangalam Rajakkamangalam,8.13194,77.36670,10-01-20,2.2
Tamil Nadu Kanniyakumari Rajakkamangalam Vadiveeswaram East Village,8.16667,77.45000,10-01-20,1.3
Tamil Nadu Kanniyakumari Thackalai Muthalakuruchi,8.24861,77.30830,10-01-20,5.3
Tamil Nadu Kanniyakumari Thiruvattar Aruvikarai,8.35222,77.28580,10-01-20,6.4
Tamil Nadu Kanniyakumari Thiruvattar Attoor,8.32500,77.25830,10-01-20,8.5
Tamil Nadu Kanniyakumari Thiruvattar Valvachagoastam A,8.28389,77.27190,10-01-20,8.4
January month Depth to Water Level (In mbgl) Data of Unconfined Aquifer STATE_UT DISTRICT BLOCK VILLAGE LATITUDE LONGITUDE Date WL(mbgl) Tamil Nadu Kanniyakumari Thovala Aralvoimozhy South,8.25000,77.51670,10-01-20,3.9
Tamil Nadu Kanniyakumari Thovala Thazhakudy,8.25833,77.45280,10-01-20,4.5
Tamil Nadu Karur Aravakurichi Aravakurichi,10.77500,77.92500,10-01-20,10.1
Tamil Nadu Karur Aravakurichi Modakkur West,10.76030,77.82890,10-01-20,6.5
Tamil Nadu Karur K.Paramathy K.Paramathi,10.96670,77.91250,10-01-20,1.4
Tamil Nadu Karur K.Paramathy Sudamani,10.86670,77.90000,10-01-20,4.5
Tamil Nadu Karur Kadavur Varavanai,10.77890,78.19750,10-01-20,9.7
Tamil Nadu Karur Karur Karur,10.95830,78.08330,10-01-20,4.7
Tamil Nadu Karur Karur Vettamangalam East,11.05220,77.92500,10-01-20,4.9
Tamil Nadu Karur Krishnarayapuram Chithalavai,10.87670,78.22190,10-01-20,1.5
Tamil Nadu Karur Krishnarayapuram Thirukampuliyur,10.94170,78.24170,10-01-20,8.4
Tamil Nadu Karur Kulittalai Inungur,10.85470,78.48780,10-01-20,8.4
Tamil Nadu Karur Kulittalai Nangavaram,10.86610,78.54720,10-01-20,2.3
Tamil Nadu Karur Thanthoni Jegadabi,10.84170,78.16670,10-01-20,10.7
Tamil Nadu Karur Thanthoni Velliyanai North,10.86670,78.13330,10-01-20,3.2
Tamil Nadu Karur Thogaimalai Thogamalai,10.72920,78.42500,10-01-20,1.9
Tamil Nadu Krishnagiri Bargur Jambukuttappatti,12.33280,78.35030,10-01-20,1.7
Tamil Nadu Krishnagiri Bargur Mahadevagollahalli,12.40250,78.34360,10-01-20,7.6
Tamil Nadu Krishnagiri Hosur Muthganapalli,12.61560,77.78440,10-01-20,11.0
Tamil Nadu Krishnagiri Kaveripattinam Pennaswaramatam,12.39170,78.24690,10-01-20,6.0
Tamil Nadu Krishnagiri Kaveripattinam Tatarahalli,12.34080,78.24580,10-01-20,4.3
Tamil Nadu Krishnagiri Kelamangalam Bodichipalli,12.56670,77.90000,10-01-20,1.5
Tamil Nadu Krishnagiri Kelamangalam Nagamangalam,12.56390,77.91280,10-01-20,9.1
Tamil Nadu Krishnagiri Kelamangalam Suligunta,12.53470,78.04890,10-01-20,5.0
Tamil Nadu Krishnagiri Krishnagiri Errahalli,12.40830,78.20830,10-01-20,1.5
Tamil Nadu Krishnagiri Krishnagiri Mittahalli,12.41310,78.17080,10-01-20,3.4
Tamil Nadu Krishnagiri Mathur Batrahalli,12.38330,78.41670,10-01-20,9.5
Tamil Nadu Krishnagiri Shoolagiri Bodichipalli,12.59330,77.86810,10-01-20,1.5
Tamil Nadu Krishnagiri Shoolagiri Shoolagiri,12.66670,78.02500,10-01-20,9.0
Tamil Nadu Krishnagiri Thally Noganoor,12.52500,77.78330,10-01-20,7.8
Tamil Nadu Krishnagiri Thally Thalli,12.57920,77.65830,10-01-20,9.0
Tamil Nadu Krishnagiri Uthangarai Karappattu,12.34750,78.55500,10-01-20,2.3
Tamil Nadu Krishnagiri Uthangarai Venkadattanpatti,12.26670,78.52920,10-01-20,4.0
Tamil Nadu Madurai Chellampatti A.Kokkulam,9.94139,77.96810,10-01-20,7.9
Tamil Nadu Madurai Madurai East Thirumohur,9.95111,78.20720,10-01-20,1.3
Tamil Nadu Madurai Madurai West Kadavur,10.07920,78.17500,10-01-20,5.3
Tamil Nadu Madurai Madurai West Poikairaipatti,10.04580,78.20000,10-01-20,1.7
Tamil Nadu Madurai Madurai West Thiruppalai,9.98694,78.13890,10-01-20,4.4
January month Depth to Water Level (In mbgl) Data of Unconfined Aquifer STATE_UT DISTRICT BLOCK VILLAGE LATITUDE LONGITUDE Date WL(mbgl) Tamil Nadu Madurai Melur Melur Town,10.03060,78.33330,10-01-20,1.8
Tamil Nadu Madurai Melur Melur Town,10.03330,78.34440,10-01-20,1.7
Tamil Nadu Madurai Sedapatti Saptur R.F,9.75000,77.67500,10-01-20,8.9
Tamil Nadu Madurai T.Kallupatti Kenchampatti Bit 1,9.70694,77.88560,10-01-20,10.0
Tamil Nadu Madurai Tirumangalam K.Puliyankulam,9.94083,78.00060,10-01-20,9.4
Tamil Nadu Madurai Tirumangalam Nilayur Bit 1,9.86000,78.02190,10-01-20,7.2
Tamil Nadu Madurai Tirumangalam Thirumangalam,9.81667,77.97920,10-01-20,15.6
Tamil Nadu Madurai Tirupparangunram Arappalayam,9.91889,78.11190,10-01-20,24.7
Tamil Nadu Madurai Tirupparangunram Arappalayam,9.92722,78.10360,10-01-20,15.1
Tamil Nadu Madurai Tirupparangunram Eliyarpathi,9.79694,78.09330,10-01-20,16.1
Tamil Nadu Madurai Tirupparangunram Melamadai Bit 2,9.93472,78.16890,10-01-20,4.7
Tamil Nadu Madurai Tirupparangunram Puliyankulam,9.88444,78.18250,10-01-20,4.4
Tamil Nadu Madurai Tirupparangunram Valayankulam,9.80417,78.09170,10-01-20,18.7
Tamil Nadu Madurai Tirupparangunram Valayankulam,9.80417,78.09170,10-01-20,9.0
Tamil Nadu Madurai Usilampatti Mekkilarpatti,9.98611,77.80420,10-01-20,9.7
Tamil Nadu Madurai Vadipatti Neerathan,10.08140,77.96690,10-01-20,4.7
